"Region","Locality","Operator","Owner","DC or AC","kW","Connectors","Num_installed","Num_in_progress","Address","Long","Lat","EECA funded"
"Wellington","Wellington","ChargeNet NZ","ChargeNet NZ","DC",25,"DC 50 kW CHAdeMO, DC 50 kW Type 2 CCS",1,0,"1 Stevens Grove, Lower Hutt 5010",174.904344,-41.2111426,"Yes"
"Auckland","Auckland","ChargeNet NZ","The Warehouse Ltd","DC",25,"DC 25 kW CHAdeMO, DC 25 kW Type 2 CCS",1,0,"100 Pah Rd, Auckland 1023, NZ",174.7704776,-36.9122042,"Yes"
"West Coast","West Coast","ChargeNet NZ","ChargeNet NZ","DC",25,"DC 25 kW CHAdeMO, DC 25 kW Type 2 CCS",1,0,"103 Bridge Street, Karamea 7893, NZ",172.1320616,-41.2600341,"Yes"
"Wellington","Petone","ChargeNet NZ","ChargeNet NZ","DC",25,"DC 25 kW CHAdeMO, DC 25 kW Type 2 CCS, DC 25 kW CHAdeMO, DC 25 kW Type 2 CCS",2,0,"114-124 Jackson St, Petone, Lower Hutt 5012",174.8713316,-41.2247064,"Yes"
"Auckland","Auckland","ChargeNet NZ","ChargeNet NZ","DC",25,"DC 25 kW CHAdeMO, DC 25 kW Type 2 CCS",1,0,"120 Hobsonville Rd, Auckland 0618",174.64454,-36.7991,"Yes"
"Northland","Northland","ChargeNet NZ","ChargeNet NZ","DC",25,"DC 25 kW CHAdeMO, DC 25 kW Type 2 CCS",1,0,"14-18 Marino Place, Kaikohe 0405, NZ",173.8004955,-35.4083507,"Yes"
"Gisborne","Gisborne","ChargeNet NZ","Eastland Energy Solutions Limited","DC",25,"DC 25 kW CHAdeMO, DC 25 kW Type 2 CCS",1,0,"146 Waiomatatini Road, Ruatoria 4032",178.317528,-37.891379,"Yes"
"Northland","Paihia","ChargeNet NZ","ChargeNet NZ","DC",25,"DC 25 kW CHAdeMO, DC 25 kW Type 2 CCS",1,0,"16 Williams Road, Paihia, NZ",174.090388,-35.282895,"Yes"
"Waikato","Claudelands","WEL Networks Ltd","WEL Networks Ltd","DC",25,"DC 25 kW CHAdeMO, DC 25 kW Type 2 CCS, DC 25 kW CHAdeMO, DC 25 kW Type 2 CCS",2,0,"160 Peachgrove Rd, Hamilton East",175.2992412,-37.7784408,"Yes"
"Southland","Southland","ChargeNet NZ","ChargeNet NZ","DC",25,"DC 25 kW CHAdeMO, DC 25 kW Type 2 CCS",1,0,"163 Palmerston St, Riverton 9822, NZ",168.0138619,-46.3524139,"Yes"
"West Coast","Greymouth","ChargeNet NZ","The Warehouse Ltd","DC",25,"DC 25 kW CHAdeMO, DC 25 kW Type 2 CCS",1,0,"174 Mawhera Quay, Greymouth 7805",171.2158657,-42.4482754,"Yes"
"Wellington","Wellington","ChargeNet NZ","ChargeNet NZ","DC",25,"DC 25 kW CHAdeMO, DC 25 kW Type 2 CCS",1,0,"174 Vivian St, Wellington 6011",174.7745151,-41.2943163,"No"
"Canterbury","Christchurch","ChargeNet NZ","ChargeNet NZ","DC",25,"DC 25 kW CHAdeMO, DC 25 kW Type 2 CCS",1,0,"175 Durham St South, Christchurch 8011",172.6333,-43.53883,"Yes"
"Canterbury","Canterbury","ChargeNet NZ","Orion New Zealand Ltd","DC",25,"DC 25 kW CHAdeMO, DC 25 kW Type 2 CCS",1,0,"18 Gallipoli St, Leeston 7632, NZ",172.2988369,-43.76127,"No"
"Canterbury","Canterbury","ChargeNet NZ","ChargeNet NZ","DC",25,"DC 25 kW CHAdeMO, DC 25 kW Type 2 CCS",1,0,"185 King St, Temuka 7920, NZ",171.2762298,-44.2412524,"Yes"
"Northland","Northland","ChargeNet NZ","The Warehouse Ltd","DC",25,"DC 25 kW CHAdeMO, DC 25 kW Type 2 CCS",1,0,"2 North Park Drv, Kaitaia 0410, NZ",173.2603855,-35.0980168,"Yes"
"Gisborne","Gisborne","ChargeNet NZ","Eastland Energy Solutions Limited","DC",25,"DC 25 kW CHAdeMO, DC 25 kW Type 2 CCS",1,0,"20 Rata St, Te Araroa 4082",178.369271,-37.6338931,"Yes"
"Waikato","Huntly","WEL Networks Ltd","WEL Networks Ltd","DC",25,"DC 25 kW CHAdeMO, DC 25 kW Type 2 CCS, DC 25 kW CHAdeMO, DC 25 kW Type 2 CCS",2,0,"20 Tumate Mahuta Dr, Huntly",175.1582326,-37.5650425,"Yes"
"Canterbury","Canterbury","ChargeNet NZ","ChargeNet NZ","DC",25,"DC 25 kW CHAdeMO, DC 25 kW Type 2 CCS",1,0,"22 Rapuwai Lane, Tekapo 7999",170.4758336,-44.0029623,"Yes"
"Waikato","Rototuna","WEL Networks Ltd","WEL Networks Ltd","DC",25,"DC 25 kW CHAdeMO, DC 25 kW Type 2 CCS, DC 25 kW CHAdeMO, DC 25 kW Type 2 CCS",2,0,"23 Horsham Downs Road, Flagstaff",175.2726145,-37.7322433,"Yes"
"Wellington","Wellington","ChargeNet NZ","ChargeNet NZ","DC",25,"DC 25 kW CHAdeMO, DC 25 kW Type 2 CCS",1,0,"236 Karori Rd, Wellington 6012",174.7381456,-41.284381,"Yes"
"Gisborne","Gisborne","ChargeNet NZ","Eastland Energy Solutions Limited","DC",25,"DC 25 kW CHAdeMO, DC 25 kW Type 2 CCS",1,0,"25 Waitangi Street, Tokomaru Bay 4079",178.3144158,-38.1302652,"Yes"
"Otago","Dunedin","ChargeNet NZ","ChargeNet NZ","DC",25,"DC 25 kW CHAdeMO, DC 25 kW Type 2 CCS",1,0,"2501 Papatowai Highway, Papatowai 9586",169.4689119,-46.5576532,"Yes"
"Tasman","Tasman","ChargeNet NZ","The Warehouse Ltd","DC",25,"DC 25 kW CHAdeMO, DC 25 kW Type 2 CCS",1,0,"270 High St, Motueka 7120, NZ",173.0106029,-41.1144352,"Yes"
"Wellington","Wellington","ChargeNet NZ","ChargeNet NZ","DC",25,"DC 25 kW CHAdeMO, DC 25 kW Type 2 CCS",1,0,"28 Whitemans Rd, Upper Hutt 5019",175.0117326,-41.1485484,"Yes"
"Waikato","Hamilton","WEL Networks Ltd","WEL Networks Ltd","DC",25,"DC 25 kW CHAdeMO, DC 25 kW Type 2 CCS, DC 25 kW CHAdeMO, DC 25 kW Type 2 CCS",2,0,"3 Fergy Place, Rototuna North, Hamilton 3210",175.257585760048,-37.7224127829775,"Yes"
"Wellington","Johnsonville","ChargeNet NZ","ChargeNet NZ","DC",25,"DC 25 kW CHAdeMO, DC 25 kW Type 2 CCS, DC 25 kW CHAdeMO, DC 25 kW Type 2 CCS, DC 25 kW CHAdeMO, DC 25 kW Type 2 CCS, DC 25 kW CHAdeMO, DC 25 kW Type 2 CCS",4,0,"34 Moorefield Road, Johnsonville, Wellington 6037",174.8047695,-41.2229042,"Yes"
"Auckland","Auckland","ChargeNet NZ","ChargeNet NZ","DC",25,"DC 25 kW CHAdeMO, DC 25 kW Type 2 CCS",1,0,"345 Great South Rd, Takanini 2112, NZ",174.9426816,-37.0743532,"Yes"
"Gisborne","Morere","ChargeNet NZ","Eastland Energy Solutions Limited","DC",25,"DC 25 kW CHAdeMO, DC 25 kW Type 2 CCS",1,0,"3968 State Highway 2, Morere, Wairoa 4078, New Zealand",177.7915458,-38.9865976,"Yes"
"Northland","Northland","ChargeNet NZ","ChargeNet NZ","DC",25,"DC 25 kW CHAdeMO, DC 25 kW Type 2 CCS",1,0,"4126 Far N Rd, Pukenui 0484",173.11876,-34.8158421,"Yes"
"Northland","Northland","ChargeNet NZ","The Warehouse Ltd","DC",25,"DC 25 kW CHAdeMO, DC 25 kW Type 2 CCS, DC 25 kW CHAdeMO, DC 25 kW Type 2 CCS",2,0,"42 Port Rd, Whangarei 0110, NZ",174.3308865,-35.7312689,"Yes"
"Gisborne","Tolaga Bay","ChargeNet NZ","Eastland Energy Solutions Limited","DC",25,"DC 25 kW CHAdeMO, DC 25 kW Type 2 CCS",1,0,"43 Cook Street, Tolaga Bay, Gisborne 4077, New Zealand",178.296546,-38.3726568,"Yes"
"Hawke's Bay","Hawke's Bay","ChargeNet NZ","Eastland Energy Solutions Limited","DC",25,"DC 25 kW CHAdeMO, DC 25 kW Type 2 CCS",1,0,"43 Moana Drive, Mahia 4198",177.8739626,-39.0803701,"Yes"
"Otago","Otago","ChargeNet NZ","ChargeNet NZ","DC",25,"DC 25 kW CHAdeMO, DC 25 kW Type 2 CCS",1,0,"45 Mull St, Glenorchy 9372",168.3858437,-44.8493797,"Yes"
"West Coast","West Coast","ChargeNet NZ","ChargeNet NZ","DC",25,"DC 25 kW CHAdeMO, DC 25 kW Type 2 CCS",1,0,"47 Broadway, Reefton 7830, NZ",171.8662509,-42.1198243,"Yes"
"Waikato","Hamilton","WEL Networks Ltd","WEL Networks Ltd","DC",25,"DC 25 kW CHAdeMO, DC 25 kW Type 2 CCS, DC 25 kW CHAdeMO, DC 25 kW Type 2 CCS",2,0,"551 Anglesea Street, Hamilton",175.286377835335,-37.7936206972454,"Yes"
"Waikato","Hamilton","WEL Networks Ltd","WEL Networks Ltd","DC",25,"DC 25 kW CHAdeMO, DC 25 kW Type 2 CCS, DC 25 kW CHAdeMO, DC 25 kW Type 2 CCS",2,0,"58 Anglesea St, Hamilton",175.2865306,-37.7944069,"Yes"
"Wellington","Wellington","ChargeNet NZ","ChargeNet NZ","DC",25,"DC 25 kW CHAdeMO, DC 25 kW Type 2 CCS",1,0,"6 Medway St, Wellington 6023",174.7728418,-41.3346805,"Yes"
"Wellington","Wellington","MERIDIAN ENERGY LIMITED","MERIDIAN ENERGY LIMITED","DC",25,"DC 25 kW CHAdeMO, DC 25 kW Type 2 CCS",1,0,"611 Marine Drive, Eastbourne 5013",174.9074187,-41.2803606,"No"
"West Coast","West Coast","ChargeNet NZ","ChargeNet NZ","DC",25,"DC 25 kW CHAdeMO, DC 25 kW Type 2 CCS",1,0,"63 Cron Street, Franz Joseph Glacier 7886",170.1845917,-43.3841839,"Yes"
"Otago","Otago","ChargeNet NZ","The Warehouse Ltd","DC",25,"DC 25 kW CHAdeMO, DC 25 kW Type 2 CCS",1,0,"64 Hillside Rd, Dunedin 9012, NZ",170.5009209,-45.8919269,"Yes"
"Southland","Southland","ChargeNet NZ","ChargeNet NZ","DC",25,"DC 25 kW CHAdeMO, DC 25 kW Type 2 CCS",1,0,"66 Main Road, Tuatapere 9620, NZ",167.6894114,-46.1358218,"Yes"
"Wellington","Wellington","ChargeNet NZ","ChargeNet NZ","DC",25,"DC 25 kW CHAdeMO, DC 25 kW Type 2 CCS",1,0,"69 Lakewood Ave, Wellington 6037",174.8080851,-41.2027944,"Yes"
"Southland","Southland","ChargeNet NZ","The Warehouse Ltd","DC",25,"DC 25 kW CHAdeMO, DC 25 kW Type 2 CCS",1,0,"70 Leven St, Invercargill 9810, NZ",168.3454438,-46.4084977,"Yes"
"Northland","Northland","ChargeNet NZ","The Warehouse Ltd","DC",25,"DC 25 kW CHAdeMO, DC 25 kW Type 2 CCS",1,0,"8 Kilnac Ln, Waipapa 0295, NZ",173.9192554,-35.21056,"Yes"
"Gisborne","Gisborne","ChargeNet NZ","The Warehouse Ltd","DC",25,"DC 25 kW CHAdeMO, DC 25 kW Type 2 CCS",1,0,"80 Customhouse St, Gisborne 4010, NZ",178.0257565,-38.6710431,"Yes"
"Wellington","Wellington","ChargeNet NZ","ChargeNet NZ","DC",25,"DC 25 kW CHAdeMO, DC 25 kW Type 2 CCS",1,0,"93-97 Mana Esplanade, Porirua 5026",174.8686014,-41.0942541,"Yes"
"Canterbury","Canterbury","ChargeNet NZ","ChargeNet NZ","DC",25,"DC 25 kW CHAdeMO, DC 25 kW Type 2 CCS",1,0,"98 Evans St, Timaru 7910",171.2375615,-44.3830998,"Yes"
"Marlborough","Nelson and Marlborough","ChargeNet NZ","The Warehouse Ltd","DC",25,"DC 25 kW CHAdeMO, DC 25 kW Type 2 CCS",1,0,"Cnr Kinross and Redwood Streets, Blenheim 7201, NZ",173.9603549,-41.5149643,"Yes"
"Waikato","Waikato","ChargeNet NZ","The Warehouse Ltd","DC",25,"DC 25 kW CHAdeMO, DC 25 kW Type 2 CCS",1,0,"Cnr Rora and Alexandra St, Te Kuiti 3910",175.1619324,-38.3317195,"Yes"
"Bay of Plenty","Mt Maunganui","ChargeNet NZ","Foodstuffs North Island Ltd","DC",25,"DC 25 kW CHAdeMO, DC 25 kW Type 2 CCS",1,0,"Cnr Tweed St & Maunganui Rd, Mt. Maunganui, Bay of Plenty",176.1989377,-37.6538618,"Yes"
"Canterbury","Timaru","ChargeNet NZ","The Warehouse Ltd","DC",25,"DC 25 kW CHAdeMO, DC 25 kW Type 2 CCS",1,0,"Cnr Victoria and Browne St, Timaru 7910, NZ",173.268864,-35.118102,"Yes"
"Waikato","Huka Falls","ChargeNet NZ","ChargeNet NZ","DC",25,"DC 25 kW CHAdeMO, DC 25 kW Type 2 CCS",0,1,"Karetoto Road, Waikato",176.0921681,-38.6350854,"Yes"
"Southland","Southland","ChargeNet NZ","ChargeNet NZ","DC",25,"DC 25 kW CHAdeMO, DC 25 kW Type 2 CCS",1,0,"Mair Rd, Curio Bay 9884, NZ",169.0827436,-46.6647543,"No"
"Wellington","Wellington","ChargeNet NZ","ChargeNet NZ","DC",25,"DC 25 kW CHAdeMO, DC 25 kW Type 2 CCS, DC 25 kW CHAdeMO, DC 25 kW Type 2 CCS",2,0,"Manchester Street , Wellington 6021",174.7865845,-41.3210788,"Yes"
"Canterbury","Fortrose","ChargeNet NZ","ChargeNet NZ","DC",25,"DC 25 kW CHAdeMO, DC 25 kW Type 2 CCS",1,0,"Moray Tce, Fortrose",168.795896,-46.571653,"Yes"
"Canterbury","Christchurch","ChargeNet NZ","The Warehouse Ltd","DC",25,"DC 25 kW CHAdeMO, DC 25 kW Type 2 CCS, DC 25 kW CHAdeMO, DC 25 kW Type 2 CCS",2,0,"Rolleston Dr, Christchurch 7614, NZ",172.3795743,-43.5985802,"Yes"
"Northland","Northland","ChargeNet NZ","ChargeNet NZ","DC",25,"DC 25 kW CHAdeMO, DC 25 kW Type 2 CCS",1,0,"State Highway 1, Waitiki Landing 0484, NZ",172.839956,-34.5178944,"Yes"
"Otago","Dunedin","ChargeNet NZ","ChargeNet NZ","DC",25,"DC 50 kW CHAdeMO, DC 50 kW Type 2 CCS",1,0,"Water St, Dunedin 9016, NZ",170.5028188,-45.8787241,"No"
"Otago","Okawa","ChargeNet NZ","ChargeNet NZ","DC",25,"DC 25 kW CHAdeMO, DC 25 kW Type 2 CCS",1,0,"1 Main Road, Owaka 9546, New Zealand",169.659753,-46.45065,"Yes"
"Otago","Shotover Jet, Queenstown","ChargeNet NZ","Ngai Tahu Tourism Ltd","DC",25,NA,0,2,"3 Arthurs Point Rd, Arthurs Point",168.6714804,-44.9870695,"Yes"
"Otago","Otago","ChargeNet NZ","ChargeNet NZ","DC",50,"DC 50 kW CHAdeMO, DC 50 kW Type 2 CCS",1,0,"1 Harvey St, Omakau 9352",169.6015853,-45.0942122,"Yes"
"Waikato","Waikato","ChargeNet NZ","Unison Networks Limited","DC",50,"DC 50 kW CHAdeMO, DC 50 kW Type 2 CCS",1,0,"1 Kaimanawa Street, Taupo 3330",176.0763093,-38.6927377,"Yes"
"Northland","Northland","ChargeNet NZ","ChargeNet NZ","DC",50,"DC 50 kW CHAdeMO, DC 50 kW Type 2 CCS",1,0,"1 Kaiwaka-Mangawhai Rd, Kaiwaka 0542",174.444137,-36.160781,"Yes"
"Waikato","Waikato","ChargeNet NZ","ChargeNet NZ","DC",50,"DC 50 kW CHAdeMO, DC 50 kW Type 2 CCS",1,0,"1 Pihanga Rd, Turangi 3334",175.8102478,-38.9904609,"No"
"Wellington","Wellington","ChargeNet NZ","ChargeNet NZ","DC",50,"DC 25 kW CHAdeMO, DC 25 kW Type 2 CCS,",1,0,"1 Stevens Grove, Lower Hutt 5010",174.904344,-41.2111426,"Yes"
"Marlborough","Nelson and Marlborough","ChargeNet NZ","ChargeNet NZ","DC",50,"DC 50 kW CHAdeMO, DC 50 kW Type 2 CCS",1,0,"1 Westwood Avenue, Blenheim 7271, NZ",173.9243237,-41.5082666,"Yes"
"Otago","Otago","ChargeNet NZ","ChargeNet NZ","DC",50,"DC 50 kW CHAdeMO, DC 50 kW Type 2 CCS",1,0,"10 Hartstonge Ave, Mosgiel 9024, NZ",170.3493017,-45.8724848,"Yes"
"Waikato","Waikato","ChargeNet NZ","ChargeNet NZ","DC",50,"DC 50 kW CHAdeMO, DC 50 kW Type 2 CCS",1,0,"10 Scout Lane, Te Awamutu 3800",175.3291328,-38.0085327,"Yes"
"Waikato","Waikato","ChargeNet NZ","ChargeNet NZ","DC",50,"DC 50 kW CHAdeMO, DC 50 kW Type 2 CCS",1,0,"100 Hetherington Rd, Whangamata 3620",175.8737518,-37.2034937,"Yes"
"Hawke's Bay","Hawke's Bay","ChargeNet NZ","Unison Networks Limited","DC",50,"DC 50 kW CHAdeMO, DC 50 kW Type 2 CCS",1,0,"100 Queen St W, Hastings 4122",176.8436738,-39.6409079,"No"
"Canterbury","Ashburton","ChargeNet NZ","Electricity Ashburton Ltd","DC",50,"DC 50 kW CHAdeMO, DC 50 kW Type 2 CCS",1,0,"109 West Street, Ashburton 7700",171.745359,-43.90528,"Yes"
"Northland","Northland","ChargeNet NZ","ChargeNet NZ","DC",50,"DC 50 kW CHAdeMO, DC 50 kW Type 2 CCS",1,0,"11 Alexander Street, Whangarei 0110",174.3178194,-35.7224233,"Yes"
"Auckland","Auckland","ChargeNet NZ","ChargeNet NZ","DC",50,"DC 50 kW CHAdeMO, DC 50 kW Type 2 CCS",1,0,"11 Moana Ave, Orewa 0931, NZ",174.694049,-36.586643,"No"
"Bay Of Plenty","Te Kaha","ChargeNet NZ","Horizon Networks","DC",50,"DC 50 kW CHAdeMO, DC 50 kW Type 2 CCS",1,0,"11 Te Kaha Hotel Rd, Te Kaha 3199",177.675,-37.74,"Yes"
"Northland","Northland","ChargeNet NZ","ChargeNet NZ","DC",50,"DC 50 kW CHAdeMO, DC 50 kW Type 2 CCS",1,0,"111 North Rd, Kaitaia 0482, NZ",173.2591478,-35.0993388,"Yes"
"Manawatu-Whanganui","Taumaranui Railway Station","The Lines Company","The Lines Company","DC",50,"DC 50 kW CHAdeMO, DC 50 kW Type 2 CCS",1,0,"112 Hakiaha Street, Taumaranui",175.2660817,-38.8827313,"Yes"
"Southland","Southland","ChargeNet NZ","ChargeNet NZ","DC",50,"DC 50 kW CHAdeMO, DC 50 kW Type 2 CCS",1,0,"1121 Garston Athol Hwy, Athol 9793",168.5792508,-45.5109069,"Yes"
"Northland","Northland","ChargeNet NZ","ChargeNet NZ","DC",50,"DC 50 kW CHAdeMO, DC 50 kW Type 2 CCS",1,0,"113 Totara Street, Dargaville 0310",173.8726079,-35.9404221,"Yes"
"Bay of Plenty","Bay of Plenty","ChargeNet NZ","Unison Networks Limited","DC",50,"DC 50 kW CHAdeMO, DC 50 kW Type 2 CCS",1,0,"1134 Haupapa Street, Rotorua 3010",176.25273,-38.1360532,"Yes"
"Waikato","Hamilton","WEL Networks Ltd","WEL Networks Ltd","DC",50,"DC 50 kW Type 2 CCS, DC 50 kW CHAdeMO",1,0,"114 Maui St, Pukete",175.222543851019,-37.7317137166904,"Yes"
"Southland","Southland","ChargeNet NZ","ChargeNet NZ","DC",50,"DC 50 kW CHAdeMO, DC 50 kW Type 2 CCS",1,0,"116 Esk Street, Invercargill 9810",168.3531454,-46.4117139,"Yes"
"West Coast","West Coast","ChargeNet NZ","ChargeNet NZ","DC",50,"DC 50 kW CHAdeMO, DC 50 kW Type 2 CCS",1,0,"116 Revell Street, Hokitika 7810, NZ",170.9627168,-42.7165358,"Yes"
"Manawatu-Whanganui","Manawatu-Whanganui","ChargeNet NZ","ChargeNet NZ","DC",50,"DC 50 kW CHAdeMO, DC 50 kW Type 2 CCS",1,0,"12 Huia St, Taihape 4720, NZ",175.7992278,-39.676519,"Yes"
"Bay of Plenty","Bay of Plenty","ChargeNet NZ","ChargeNet NZ","DC",50,"DC 50 kW CHAdeMO, DC 50 kW Type 2 CCS",1,0,"12 Jocelyn St, Te Puke 3119",176.3280897,-37.7830105,"Yes"
"Wellington","Wellington","ChargeNet NZ","ChargeNet NZ","DC",50,"DC 50 kW CHAdeMO, DC 50 kW Type 2 CCS",1,0,"12 Parumoana Street, Porirua 5022",174.8419683,-41.1312774,"Yes"
"Auckland","Auckland","ChargeNet NZ","ChargeNet NZ","DC",50,"DC 50 kW CHAdeMO, DC 50 kW Type 2 CCS",1,0,"120 Hobsonville Rd, Auckland 0618",174.6445404,-36.7991846,"Yes"
"Auckland","Auckland","Vector","Vector","DC",50,"DC 50 kW Type 2 CCS, DC 50 kW CHAdeMO, DC 50 kW Type 2 CCS, DC 50 kW CHAdeMO",2,0,"120 State Highway,Auckland,Kumeu,0810",174.5571044,-36.7766898,"No"
"Canterbury","Canterbury","ChargeNet NZ","ChargeNet NZ","DC",50,"DC 50 kW CHAdeMO, DC 50 kW Type 2 CCS",1,0,"123 Carters Rd, Amberley 7410, NZ",172.7303796,-43.1564722,"Yes"
"Canterbury","Canterbury","ChargeNet NZ","ChargeNet NZ","DC",50,"DC 50 kW CHAdeMO, DC 50 kW Type 2 CCS",1,0,"124-128 Beach Rd, Kaikoura 7300, NZ",173.6795927,-42.3878836,"Yes"
"Canterbury","Canterbury","ChargeNet NZ","Alpine Energy Limited","DC",50,"DC 50 kW CHAdeMO, DC 50 kW Type 2 CCS",1,0,"125 Queen Street, Waimate 7924",171.046394,-44.734753,"No"
"West Coast","West Coast","ChargeNet NZ","ChargeNet NZ","DC",50,"DC 50 kW CHAdeMO, DC 50 kW Type 2 CCS",1,0,"13 Tarapuhi Street, Greymouth 7805",171.208801,-42.4501804,"Yes"
"Northland","Northland","ChargeNet NZ","ChargeNet NZ","DC",50,"DC 50 kW CHAdeMO, DC 50 kW Type 2 CCS",1,0,"130 Tauroa St, Whangarei 0110",174.3087761,-35.7514612,"No"
"Canterbury","Canterbury","ChargeNet NZ","Network Waitaki","DC",50,"DC 50 kW Type 2 CCS, DC 50 kW CHAdeMO",1,0,"14 Bledisloe St, Kurow 9435",170.4704516,-44.7333019,"No"
"Southland","Southland","ChargeNet NZ","ChargeNet NZ","DC",50,"DC 50 kW CHAdeMO, DC 50 kW Type 2 CCS",1,0,"14 Diana St, Lumsden 9730, NZ",168.4414491,-45.7389158,"Yes"
"Canterbury","Canterbury","ChargeNet NZ","Alpine Energy Limited","DC",50,"DC 50 kW CHAdeMO, DC 50 kW Type 2 CCS",1,0,"14 Geraldine-Fairlie Hwy, Geraldine 7930",171.2349284,-44.1074152,"No"
"Auckland","Pukekohe","Counties Power","Counties Power","DC",50,"DC 50 kW CHAdeMO, DC 50 kW Type 2 CCS",1,0,"14 Glasgow Rd, Pukekohe 2120, New Zealand",174.9079987,-37.2081638,"Yes"
"Auckland","Auckland","Vector","Vector","DC",50,"DC 50 kW CHAdeMO, DC 50 kW Type 2 CCS, DC 50 kW Type 2 CCS, DC 50 kW CHAdeMO",2,0,"14-16 Constellation Drive,Rosedale,Auckland,Auckland,0632",174.7351666,-36.7465744,"No"
"Wellington","Wellington","ChargeNet NZ","ChargeNet NZ","DC",50,"DC 50 kW CHAdeMO, DC 50 kW Type 2 CCS",1,0,"15 Raumati Rd, Paraparaumu 5032, NZ",174.9818099,-40.9187747,"Yes"
"Auckland","Auckland","ChargeNet NZ","ChargeNet NZ","DC",50,"DC 50 kW CHAdeMO, DC 50 kW Type 2 CCS",1,0,"15 Beach Rd, Auckland 1010",174.7748414,-36.8496584,"Yes"
"Waikato","Hamilton","WEL Networks Ltd","WEL Networks Ltd","DC",50,"DC 50 kW Type 2 CCS, DC 50 kW CHAdeMO",1,0,"153 Ingram Road, Rukuhia",175.324959,-37.8767508,"Yes"
"Waikato","Waikato","ChargeNet NZ","ChargeNet NZ","DC",50,"DC 50 kW CHAdeMO, DC 50 kW Type 2 CCS",1,0,"155 Wharf Rd, Coromandel 3506",175.4954859,-36.7607296,"Yes"
"Waikato","Te Kauwhata","WEL Networks Ltd","WEL Networks Ltd","DC",50,"DC 50 kW Type 2 CCS, DC 50 kW CHAdeMO",1,0,"16 Wayside Road, Te Kauwhata",175.127487397762,-37.4125665624,"Yes"
"Tasman","Golden Bay","ChargeNet NZ","Network Tasman Ltd","DC",50,"DC 50 kW CHAdeMO, DC 50 kW Type 2 CCS",1,0,"16 Willow Street, Golden Bay 7110",172.806,-40.862,"No"
"Canterbury","Canterbury","ChargeNet NZ","Electricity Ashburton Ltd","DC",50,"DC 50 kW CHAdeMO, DC 50 kW Type 2 CCS",1,0,"160 Main St, Methven 7730",171.647483,-43.6319204,"Yes"
"Manawatu-Whanganui","Manawatu-Whanganui","ChargeNet NZ","ChargeNet NZ","DC",50,"DC 50 kW CHAdeMO, DC 50 kW Type 2 CCS",1,0,"167 Glasgow St, Whanganui 4500",175.0388443,-39.9263494,"Yes"
"Auckland","Auckland","Vector","Vector","DC",50,"DC 50 kW Type 2 CCS, DC 50 kW CHAdeMO, DC 50 kW CHAdeMO, DC 50 kW Type 2 CCS",2,0,"17 Hibiscus Coast Highway,Silverdale,0993",174.6708392,-36.6223207,"No"
"Waikato","Waikato","ChargeNet NZ","ChargeNet NZ","DC",50,"DC 50 kW CHAdeMO, DC 50 kW Type 2 CCS",1,0,"17 Mill Street, Hamilton 3200",175.2729748,-37.7797936,"Yes"
"Canterbury","Christchurch","ChargeNet NZ","BP2go Redcliffs","DC",50,"DC 50 kW CHAdeMO, DC 50 kW Type 2 CCS",1,0,"170 Main Road, Christchurch 8081",172.7379411,-43.5613883,"No"
"Wellington","Wellington","ChargeNet NZ","ChargeNet NZ","DC",50,"DC 50 kW CHAdeMO, DC 50 kW Type 2 CCS",1,0,"174 Vivian St, Wellington 6011",174.7745151,-41.2943163,"No"
"Canterbury","Christchurch","ChargeNet NZ","ChargeNet NZ","DC",50,"DC 50 kW CHAdeMO, DC 50 kW Type 2 CCS",1,0,"174 Wainoni Rd, Christchurch 8061",172.6925937,-43.5120436,"Yes"
"Canterbury","Christchurch","ChargeNet NZ","ChargeNet NZ","DC",50,"DC 50 kW CHAdeMO, DC 50 kW Type 2 CCS",1,0,"175 Durham St South, Christchurch 8011",172.6333195,-43.5388613,"Yes"
"Auckland","Auckland","ChargeNet NZ","ChargeNet NZ","DC",50,"DC 50 kW CHAdeMO, DC 50 kW Type 2 CCS",1,0,"180 Mokoia Rd, Auckland 0626",174.7114732,-36.8114249,"Yes"
"Auckland","Auckland","ChargeNet NZ","ChargeNet NZ","DC",50,"DC 50 kW CHAdeMO, DC 50 kW Type 2 CCS",1,0,"186 Don Mckinnon Dr, Auckland 0632",174.7042936,-36.7299794,"Yes"
"Wellington","Wellington","ChargeNet NZ","ChargeNet NZ","DC",50,"DC 50 kW CHAdeMO, DC 50 kW Type 2 CCS",1,0,"186 Waerenga Road, Otaki 5512",175.1528344,-40.7637577,"Yes"
"Bay of Plenty","Bay of Plenty","ChargeNet NZ","ChargeNet NZ","DC",50,"DC 50 kW CHAdeMO, DC 50 kW Type 2 CCS",1,0,"19 Girven Road, Tauranga 3116",176.2240858,-37.6756516,"Yes"
"Auckland","Pokeno","Counties Power","Counties Power","DC",50,"DC 50 kW CHAdeMO, DC 50 kW Type 2 CCS",1,0,"19 Market St, Pokeno",175.020966,-37.2454943,"Yes"
"Auckland","Auckland","ChargeNet NZ","ChargeNet NZ","DC",50,"DC 50 kW CHAdeMO, DC 50 kW Type 2 CCS",1,0,"19 Percy Street, Warkworth 0910",174.6666316,-36.3987983,"Yes"
"Otago","Otago","ChargeNet NZ","ChargeNet NZ","DC",50,"DC 50 kW CHAdeMO, DC 50 kW Type 2 CCS",1,0,"19 Ross Pl, Lawrence 9532",169.6867352,-45.9130564,"Yes"
"Canterbury","Christchurch","ChargeNet NZ","ChargeNet NZ","DC",50,"DC 50 kW CHAdeMO, DC 50 kW Type 2 CCS",1,0,"2 Mounter Ave, Christchurch 8051",172.6224287,-43.4596969,"Yes"
"Waikato","Mokau","ChargeNet NZ","ChargeNet NZ","DC",50,"DC 50 kW CHAdeMO, DC 50 kW Type 2 CCS",0,1,"2 Rerenga Street, Mokau",174.619,-38.698,"Yes"
"Canterbury","Christchurch","ChargeNet NZ","ChargeNet NZ","DC",50,"DC 50 kW CHAdeMO, DC 50 kW Type 2 CCS",1,0,"2 Southbrook Rd, Rangiora 7400, NZ",172.5992704,-43.3251999,"Yes"
"Canterbury","Canterbury","ChargeNet NZ","Network Waitaki","DC",50,"DC 50 kW Type 2 CCS, DC 50 kW CHAdeMO",1,0,"2 Sutherland Road, Omarara 9412",169.9665037,-44.4887929,"Yes"
"Manawatu-Whanganui","Pahiatua","ChargeNet NZ","Tararua District Council","DC",50,"DC 50 kW CHAdeMO, DC 50 kW Type 2 CCS, DC 50 kW CHAdeMO, DC 50 kW Type 2 CCS",2,0,"2 Wakeman St, Pahiatua 4910, NZ",175.842403,-40.452043,"Yes"
"Auckland","New Lynn","ChargeNet NZ","ChargeNet NZ","DC",50,"DC 50 kW CHAdeMO, DC 50 kW Type 2 CCS",1,0,"2/6 Crown Lynn Place, New Lynn, Auckland",174.6854043,-36.9112475,"Yes"
"Waikato","Hampton Downs","WEL Networks Ltd","WEL Networks Ltd","DC",50,"DC 50 kW Type 2 CCS, DC 50 kW CHAdeMO",1,0,"20 Hampton Downs Road, Hampton Downs",175.080300240821,-37.3545575081454,"Yes"
"Auckland","Auckland","ChargeNet NZ","ChargeNet NZ","DC",50,"DC 50 kW CHAdeMO, DC 50 kW Type 2 CCS",1,0,"202-224 Lincoln Rd, Auckland 0610",174.6295424,-36.8580313,"No"
"Hawke's Bay","Hawke's Bay","ChargeNet NZ","Unison Networks Limited","DC",50,"DC 50 kW CHAdeMO, DC 50 kW Type 2 CCS",1,0,"206 Dickens St, Napier 4110",176.9146956,-39.4923514,"Yes"
"Auckland","Auckland","ChargeNet NZ","ChargeNet NZ","DC",50,"DC 50 kW CHAdeMO, DC 50 kW Type 2 CCS",1,0,"207 Te Koha Rd, Auckland 2013",174.9104026,-36.9312641,"No"
"Otago","Otago","ChargeNet NZ","ChargeNet NZ","DC",50,"DC 50 kW CHAdeMO, DC 50 kW Type 2 CCS",1,0,"207 Union St, Milton 9220, NZ",169.964334,-46.1164212,"Yes"
"Auckland","Auckland","ChargeNet NZ","ChargeNet NZ","DC",50,"DC 50 kW CHAdeMO, DC 50 kW Type 2 CCS",1,0,"209 Kepa Rd, Mission Bay 1070",174.8286404,-36.8610902,"Yes"
"Manawatu-Whanganui","Manawatu-Whanganui","ChargeNet NZ","ChargeNet NZ","DC",50,"DC 50 kW CHAdeMO, DC 50 kW Type 2 CCS",1,0,"21 Bath St, Levin 5510, NZ",175.2833293,-40.6231792,"Yes"
"Otago","Otago","ChargeNet NZ","ChargeNet NZ","DC",50,"DC 50 kW CHAdeMO, DC 50 kW Type 2 CCS",1,0,"21 Browns Rd, Middlemarch 9597",170.1162273,-45.5083192,"Yes"
"Auckland","Auckland","Vector","Vector","DC",50,"DC 50 kW CHAdeMO, DC 50 kW Type 2 CCS, DC 50 kW CHAdeMO, DC 50 kW Type 2 CCS",2,0,"21 Hobson St,Auckland,1010",174.7619327,-36.8454225,"No"
"Otago","Otago","ChargeNet NZ","ChargeNet NZ","DC",50,"DC 50 kW CHAdeMO, DC 50 kW Type 2 CCS",1,0,"22 Jedburgh St, Roxburgh 9500",169.3158559,-45.5422248,"Yes"
"Marlborough","Nelson and Marlborough","ChargeNet NZ","ChargeNet NZ","DC",50,"DC 50 kW CHAdeMO, DC 50 kW Type 2 CCS",1,0,"2226 State Highway 1, Blenheim 7202, NZ",173.961872,-41.4601202,"Yes"
"Otago","Otago","ChargeNet NZ","ChargeNet NZ","DC",50,"DC 50 kW CHAdeMO, DC 50 kW Type 2 CCS",1,0,"23 Charlotte Street, Balclutha 9230",169.7380643,-46.2373566,"Yes"
"Taranaki","Taranaki","ChargeNet NZ","ChargeNet NZ","DC",50,"DC 50 kW CHAdeMO, DC 50 kW Type 2 CCS",1,0,"23 Napier St, Opunake 4616, NZ",173.8605506,-39.4542745,"Yes"
"Wellington","Wellington","ChargeNet NZ","ChargeNet NZ","DC",50,"DC 50 kW CHAdeMO, DC 50 kW Type 2 CCS",1,0,"24 Queen St, Upper Hutt 5018",175.0702431,-41.1234266,"No"
"Canterbury","Canterbury","ChargeNet NZ","Alpine Energy Limited","DC",50,"DC 50 kW CHAdeMO, DC 50 kW Type 2 CCS",1,0,"26A North Street, Timaru 7910",171.2534966,-44.4006057,"No"
"Waikato","Waikato","ChargeNet NZ","ChargeNet NZ","DC",50,"DC 50 kW CHAdeMO, DC 50 kW Type 2 CCS",1,0,"270 Crozier St, Pirongia 3802, NZ",175.200118,-37.991691,"Yes"
"Tasman","Tasman","ChargeNet NZ","ChargeNet NZ","DC",50,"DC 50 kW CHAdeMO, DC 50 kW Type 2 CCS",1,0,"271 High St, Motueka 7120, NZ",173.0122184,-41.114676,"No"
"Canterbury","Canterbury","ChargeNet NZ","ChargeNet NZ","DC",50,"DC 50 kW CHAdeMO, DC 50 kW Type 2 CCS",1,0,"27A Mountain View Rd, Culverden 7392",172.8476129,-42.7743235,"Yes"
"Tasman","Tasman","ChargeNet NZ","Network Tasman Ltd","DC",50,"DC 50 kW CHAdeMO, DC 50 kW Type 2 CCS",1,0,"280 Queen Street, Richmond 7020, NZ",173.1839498,-41.3381143,"No"
"Otago","Otago","ChargeNet NZ","Network Waitaki","DC",50,"DC 50 kW Type 2 CCS, DC 50 kW CHAdeMO",1,0,"29 London St, Hampden 9410",170.8170596,-45.3242131,"Yes"
"Northland","Northland","ChargeNet NZ","ChargeNet NZ","DC",50,"DC 50 kW CHAdeMO, DC 50 kW Type 2 CCS",1,0,"29 State Highway 12, Opononi 0473, NZ",173.3910409,-35.5050796,"Yes"
"Southland","Southland","ChargeNet NZ","ChargeNet NZ","DC",50,"DC 50 kW CHAdeMO, DC 50 kW Type 2 CCS",1,0,"293 Great North Road, Winton 9720",168.3255971,-46.1416982,"Yes"
"Otago","Otago","ChargeNet NZ","ChargeNet NZ","DC",50,"DC 50 kW CHAdeMO, DC 50 kW Type 2 CCS",1,0,"2A The Mall, Cromwell 9310",169.1972962,-45.0365052,"Yes"
"Northland","Northland","ChargeNet NZ","ChargeNet NZ","DC",50,"DC 50 kW CHAdeMO, DC 50 kW Type 2 CCS",1,0,"3 Butler Road, Kerikeri 0230",173.9465938,-35.2290597,"Yes"
"Canterbury","Castle Hill","ChargeNet NZ","Orion New Zealand Ltd","DC",50,"DC 50 kW CHAdeMO, DC 50 kW Type 2 CCS",1,0,"3 Castle Hill Dr, Castle Hill 7580",171.715379,-43.208364,"Yes"
"Wellington","Wellington","ChargeNet NZ","ChargeNet NZ","DC",50,"DC 50 kW CHAdeMO, DC 50 kW Type 2 CCS",1,0,"3 Dixon Street, Masterton 5810",175.6664929,-40.9481901,"Yes"
"Otago","Otago","ChargeNet NZ","Network Waitaki","DC",50,"DC 50 kW Type 2 CCS, DC 50 kW CHAdeMO",1,0,"3 Eden St, Oamaru 9400",170.9726449,-45.097053,"Yes"
"Waikato","Waikato","ChargeNet NZ","ChargeNet NZ","DC",50,"DC 50 kW CHAdeMO, DC 50 kW Type 2 CCS, DC 50 kW CHAdeMO, DC 50 kW Type 2 CCS",2,0,"3 Station St, Tirau 3410, NZ",175.7584077,-37.9783097,"No"
"Manawatu-Whanganui","Manawatu-Whanganui","ChargeNet NZ","ChargeNet NZ","DC",50,"DC 50 kW CHAdeMO, DC 50 kW Type 2 CCS",1,0,"30 Ayr St, Ohakune 4625, NZ",175.3999183,-39.4172863,"Yes"
"Otago","Otago","ChargeNet NZ","ChargeNet NZ","DC",50,"DC 50 kW CHAdeMO, DC 50 kW Type 2 CCS",1,0,"30 Sanday Street, Palmerston 9430",170.7159351,-45.4852286,"Yes"
"Auckland","Auckland","Vector","Vector","DC",50,"DC 50 kW Type 2 CCS, DC 50 kW CHAdeMO",1,0,"30 Walters Road,Takanini,Auckland,2112",174.9321534,-37.0490147,"No"
"Otago","Queenstown","ChargeNet NZ","ChargeNet NZ","DC",50,"DC 50 kW Type 2 CCS, DC 50 kW CHAdeMO",1,0,"302 Hawthorne Drive, Frankton, Queenstown 9300",168.73,-45.014,"Yes"
"Otago","Otago","ChargeNet NZ","ChargeNet NZ","DC",50,"DC 50 kW CHAdeMO, DC 50 kW Type 2 CCS",1,0,"31 Charlemont St East, Ranfurly 9332",170.0976454,-45.1282053,"Yes"
"Bay of Plenty","Bay of Plenty","ChargeNet NZ","Horizon Networks","DC",50,"DC 50 kW CHAdeMO, DC 50 kW Type 2 CCS",1,0,"30 Quay Street, Whakatane 3120, NZ",176.9991679,-37.9500232,"No"
"Canterbury","Christchurch","ChargeNet NZ","ChargeNet NZ","DC",50,"DC 50 kW CHAdeMO, DC 50 kW Type 2 CCS",1,0,"31 Sewell Street , Kaiapoi 7630",172.6599608,-43.3818618,"Yes"
"Auckland","Auckland","Vector","Vector","DC",50,"DC 50 kW Type 2 CCS, DC 50 kW CHAdeMO, DC 50 kW Type 2 CCS, DC 50 kW CHAdeMO",2,0,"322 Pakuranga Rd,Pakuranga Heights,Auckland,2010",174.8962253,-36.9023622,"No"
"Manawatu-Whanganui","Manawatu-Whanganui","ChargeNet NZ","ChargeNet NZ","DC",50,"DC 50 kW CHAdeMO, DC 50 kW Type 2 CCS",1,0,"327 Ferguson St, Palmerston North",175.6122768,-40.3598068,"Yes"
"Bay of Plenty","Rangitiaki","ChargeNet NZ","Unison Networks Limited","DC",50,"DC 50 kW CHAdeMO, DC 50 kW Type 2 CCS",1,0,"3281 State Highway 5, Iwitahi 3379",176.369708,-38.878762,"No"
"Canterbury","Canterbury","ChargeNet NZ","ChargeNet NZ","DC",50,"DC 50 kW CHAdeMO, DC 50 kW Type 2 CCS",1,0,"33 South Terrace, Darfield 7510",172.1118946,-43.48998,"Yes"
"Hawke's Bay","Hawke's Bay","ChargeNet NZ","Centralines Ltd","DC",50,"DC 50 kW Type 2 CCS, DC 50 kW CHAdeMO",1,0,"34 Russell St, Waipukurau 4200",176.5551743,-39.9940562,"Yes"
"Canterbury","Christchurch","ChargeNet NZ","Orion New Zealand Ltd","DC",50,"DC 50 kW CHAdeMO, DC 50 kW Type 2 CCS",1,0,"346 Halswell Rd, Christchurch 8025",172.5658362,-43.5805752,"Yes"
"Auckland","Devonport","ChargeNet NZ","Foodstuffs North Island Ltd","DC",50,"DC 50 kW CHAdeMO, DC 50 kW Type 2 CCS",1,0,"35 Bartley Terrace Devonport Auckland",174.7965894,-36.829532,"Yes"
"Waikato","Waikato","ChargeNet NZ","ChargeNet NZ","DC",50,"DC 50 kW CHAdeMO, DC 50 kW Type 2 CCS",1,0,"35 Kenny Street, Waihi 3610, NZ",175.8395211,-37.3927368,"Yes"
"Auckland","Auckland","Vector","Vector","DC",50,"DC 50 kW CHAdeMO, DC 50 kW Type 2 CCS, DC 50 kW CHAdeMO, DC 50 kW Type 2 CCS",2,0,"356/320 Great South Rd,Greenlane,Auckland,1051",174.793534,-36.8896834,"No"
"Gisborne","Gisborne","ChargeNet NZ","Eastland Energy Solutions Limited","DC",50,"DC 50 kW CHAdeMO, DC 50 kW Type 2 CCS",1,0,"37 Gladstone Rd, Gisborne 4010",178.027634,-38.6672549,"Yes"
"Northland","Northland","ChargeNet NZ","ChargeNet NZ","DC",50,"DC 50 kW CHAdeMO, DC 50 kW Type 2 CCS",1,0,"37 Klinac Laned, Waipapa 0295, NZ",173.917318,-35.2108614,"Yes"
"Manawatu-Whanganui","Manawatu-Whanganui","ChargeNet NZ","ChargeNet NZ","DC",50,"DC 50 kW CHAdeMO, DC 50 kW Type 2 CCS",1,0,"374 Victoria Ave, Whanganui 4500",175.0414516,-39.9262135,"Yes"
"Waikato","Hamilton","WEL Networks Ltd","WEL Networks Ltd","DC",50,"DC 50 kW Type 2 CCS, DC 50 kW CHAdeMO",1,0,"4 Caro St, Hamilton",175.28128105207,-37.7883439028825,"Yes"
"Southland","Southland","ChargeNet NZ","ChargeNet NZ","DC",50,"DC 50 kW CHAdeMO, DC 50 kW Type 2 CCS",1,0,"4 Irk St, Gore 9710",168.9427662,-46.0991582,"Yes"
"Waikato","Waikato","ChargeNet NZ","ChargeNet NZ","DC",50,"DC 50 kW CHAdeMO, DC 50 kW Type 2 CCS",1,0,"4 Lee St, Whitianga 3510",175.7039639,-36.8344268,"Yes"
"Canterbury","Canterbury","ChargeNet NZ","ChargeNet NZ","DC",50,"DC 50 kW CHAdeMO, DC 50 kW Type 2 CCS",1,0,"4 Seddon St, Cheviot 7310, NZ",173.2729746,-42.8127454,"Yes"
"Northland","Northland","ChargeNet NZ","ChargeNet NZ","DC",50,"DC 50 kW Type 2 CCS, DC 50 kW CHAdeMO",1,0,"4 State Highway 1, Kawakawa 0210",174.065402,-35.3797398,"No"
"Northland","Northland","ChargeNet NZ","ChargeNet NZ","DC",50,"DC 50 kW CHAdeMO, DC 50 kW Type 2 CCS",1,0,"4 Wanaka Street, Whangarei 0112",174.3217681,-35.6845534,"No"
"Canterbury","Christchurch","ChargeNet NZ","ChargeNet NZ","DC",50,"DC 50 kW CHAdeMO, DC 50 kW Type 2 CCS",1,0,"40 Moorhouse Ave, Christchurch 8011",172.6221965,-43.5404781,"Yes"
"Canterbury","Canterbury","ChargeNet NZ","Electricity Ashburton Ltd","DC",50,"DC 50 kW CHAdeMO, DC 50 kW Type 2 CCS",1,0,"41 Bridge Street, Rakaia 7710",172.0257846,-43.7558181,"Yes"
"Manawatu-Whanganui","Manawatu-Whanganui","ChargeNet NZ","ChargeNet NZ","DC",50,"DC 50 kW CHAdeMO, DC 50 kW Type 2 CCS",1,0,"42 Aorangi St, Feilding 4702",175.5695923,-40.2281705,"Yes"
"Otago","Otago","ChargeNet NZ","ChargeNet NZ","DC",50,"DC 50 kW CHAdeMO, DC 50 kW Type 2 CCS",1,0,"42 Ardmore St, Wanaka 9305",169.1388927,-44.6938335,"No"
"Canterbury","Little River","ChargeNet NZ","Orion New Zealand Ltd","DC",50,"DC 50 kW CHAdeMO, DC 50 kW Type 2 CCS",1,0,"4235A Christchurch Akaroa Road, Little River 7591",172.790497,-43.770308,"No"
"Manawatu-Whanganui","Manawatu-Whanganui","ChargeNet NZ","ChargeNet NZ","DC",50,"DC 50 kW CHAdeMO, DC 50 kW Type 2 CCS",1,0,"427 Wellington Rd, Marton 4710",175.3795246,-40.0764598,"Yes"
"Waikato","Raglan","WEL Networks Ltd","WEL Networks Ltd","DC",50,"DC 50 kW Type 2 CCS, DC 50 kW CHAdeMO",1,0,"43 Bow St, Raglan",174.870311446816,-37.8002868100065,"Yes"
"Wellington","Wellington","ChargeNet NZ","ChargeNet NZ","DC",50,"DC 50 kW CHAdeMO, DC 50 kW Type 2 CCS",1,0,"43 Fitzherbert Street, Featherston 5710",175.3256111,-41.1171207,"No"
"Otago","Otago","ChargeNet NZ","ChargeNet NZ","DC",50,"DC 50 kW CHAdeMO, DC 50 kW Type 2 CCS",1,0,"44 Northumberland St, Tapanui 9522",169.2617326,-45.9431434,"Yes"
"Waikato","Coromandel","ChargeNet NZ","Thames Coromandel District Council","DC",50,"DC 50 kW CHAdeMO, DC 50 kW Type 2 CCS",1,0,"44 Woollams Avenue, Coromandel",175.4985886,-36.7590457,"Yes"
"Auckland","Auckland","ChargeNet NZ","Continental Cars","DC",50,"DC 50 kW CHAdeMO, DC 50 kW Type 2 CCS",1,0,"45 - 65 Wairau Road, Auckland 0627",174.7462876,-36.7788809,"No"
"Waikato","Waikato","ChargeNet NZ","ChargeNet NZ","DC",50,"DC 50 kW CHAdeMO, DC 50 kW Type 2 CCS",1,0,"45 Waharoa Rd, Matamata 3400, NZ",175.7696198,-37.8032614,"Yes"
"Bay of Plenty","Bay of Plenty","ChargeNet NZ","ChargeNet NZ","DC",50,"DC 50 kW CHAdeMO, DC 50 kW Type 2 CCS",1,0,"476 Cameron Road, Tauranga 3110",176.1616638,-37.6965399,"Yes"
"West Coast","West Coast","ChargeNet NZ","ChargeNet NZ","DC",50,"DC 50 kW CHAdeMO, DC 50 kW Type 2 CCS",1,0,"5 Adderley Street, Westport 7825, NZ",171.5987557,-41.7580048,"Yes"
"Waikato","Waikato","ChargeNet NZ","ChargeNet NZ","DC",50,"DC 50 kW CHAdeMO, DC 50 kW Type 2 CCS",1,0,"505 Mackay Street, Thames 3500",175.5435599,-37.1391078,"No"
"Canterbury","Canterbury","ChargeNet NZ","ChargeNet NZ","DC",50,"DC 50 kW CHAdeMO, DC 50 kW Type 2 CCS",1,0,"51 West End, Kaikoura 7300",173.6818508,-42.4011808,"Yes"
"Auckland","Auckland","ChargeNet NZ","ChargeNet NZ","DC",50,"DC 50 kW CHAdeMO, DC 50 kW Type 2 CCS",1,0,"53 May Rd, Auckland 1041",174.7343314,-36.908683,"Yes"
"Waikato","Waikato","ChargeNet NZ","ChargeNet NZ","DC",50,"DC 50 kW Type 2 CCS, DC 50 kW CHAdeMO",1,0,"53 Rora St, Te Kuiti 3910",175.1630594,-38.3324049,"Yes"
"Southland","Southland","ChargeNet NZ","ChargeNet NZ","DC",50,"DC 50 kW CHAdeMO, DC 50 kW Type 2 CCS",1,0,"54 Gore St, Bluff 9814",168.3452769,-46.5995511,"Yes"
"Taranaki","Taranaki","ChargeNet NZ","ChargeNet NZ","DC",50,"DC 50 kW CHAdeMO, DC 50 kW Type 2 CCS",1,0,"54 Princes St, Hawera 4610",174.2837788,-39.5909557,"Yes"
"Hawke's Bay","Hawke's Bay","ChargeNet NZ","Unison Networks Limited","DC",50,"DC 50 kW CHAdeMO, DC 50 kW Type 2 CCS",1,0,"5464 State Highway 2, Putorino 4181, NZ",176.9981486,-39.108209,"Yes"
"Auckland","Auckland","ChargeNet NZ","ChargeNet NZ","DC",50,"DC 50 kW CHAdeMO, DC 50 kW Type 2 CCS",1,0,"6 Cavendish Drive, Auckland 2104",174.880734,-36.9878442,"Yes"
"Southland","Southland","ChargeNet NZ","ChargeNet NZ","DC",50,"DC 50 kW CHAdeMO, DC 50 kW Type 2 CCS",1,0,"6 Mokonui Street, Te Anau 9600",167.7127698,-45.4161062,"Yes"
"Waikato","Waikato","ChargeNet NZ","ChargeNet NZ","DC",50,"DC 50 kW CHAdeMO, DC 50 kW Type 2 CCS",1,0,"6 Tokoroa Rd, Tairua 3508",175.8501488,-37.0007568,"Yes"
"Wellington","Wellington","ChargeNet NZ","ChargeNet NZ","DC",50,"DC 50 kW CHAdeMO, DC 50 kW Type 2 CCS",1,0,"60 Hutt Rd, Lower Hutt 5012",174.8688766,-41.2227976,"Yes"
"Waikato","Waikato","ChargeNet NZ","Drive EV Ltd","DC",50,"DC 50 kW CHAdeMO, DC 50 kW Type 2 CCS",1,0,"60 Tuwharetoa St, Taupo 3330",176.0725336,-38.6889269,"Yes"
"Bay of Plenty","Bay of Plenty","ChargeNet NZ","ChargeNet NZ","DC",50,"DC 50 kW CHAdeMO, DC 50 kW Type 2 CCS",1,0,"6-14 Islington Street, Kawerau 3127",176.7019247,-38.0849538,"Yes"
"Bay Of Plenty","Murupara","ChargeNet NZ","Eastland Energy Solutions Limited","DC",50,"DC 50 kW CHAdeMO, DC 50 kW Type 2 CCS",1,0,"62 Pine Drive, Murupara 3025",176.7089,-38.45426,"Yes"
"West Coast","West Coast","ChargeNet NZ","ChargeNet NZ","DC",50,"DC 50 kW CHAdeMO, DC 50 kW Type 2 CCS",1,0,"63 Cron Street, Franz Joseph Glacier 7886",170.1845917,-43.3841839,"Yes"
"Manawatu-Whanganui","Manawatu-Whanganui","ChargeNet NZ","ChargeNet NZ","DC",50,"DC 50 kW Type 2 CCS, DC 50 kW CHAdeMO",1,0,"6336b Mangawharariki Road, Mangaweka 4797",175.7880515,-39.8096194,"No"
"Gisborne","Gisborne","ChargeNet NZ","Eastland Energy Solutions Limited","DC",50,"DC 50 kW CHAdeMO, DC 50 kW Type 2 CCS",1,0,"6522 Matawai Road, Matawai 4095",177.5350082,-38.3571574,"Yes"
"Auckland","Auckland","Vector","Vector","DC",50,"DC 50 kW CHAdeMO, DC 50 kW Type 2 CCS",1,0,"67 Auckland Road,Auckland,Warkworth,0910",174.6595391,-36.4089552,"No"
"Marlborough","Nelson and Marlborough","ChargeNet NZ","ChargeNet NZ","DC",50,"DC 50 kW CHAdeMO, DC 50 kW Type 2 CCS",1,0,"68 Main Rd, Havelock 7100, NZ",173.7668437,-41.2777245,"Yes"
"Manawatu-Whanganui","Manawatu-Whanganui","ChargeNet NZ","ChargeNet NZ","DC",50,"DC 50 kW CHAdeMO, DC 50 kW Type 2 CCS",1,0,"7 Criterion Street, Bulls 4818",175.3855742,-40.174875,"No"
"Auckland","Pukekohe","Counties Power","Counties Power","DC",50,"DC 50 kW CHAdeMO, DC 50 kW Type 2 CCS",1,0,"7 Seddon Lane, Pukekohe",174.90182,-37.1998359,"Yes"
"Bay of Plenty","Bay of Plenty","ChargeNet NZ","Trust Horizon","DC",50,"DC 50 kW CHAdeMO, DC 50 kW Type 2 CCS",1,0,"70 Bridge Street, Opotiki 3122, NZ",177.2833199,-38.0126608,"Yes"
"Waikato","Waikato","ChargeNet NZ","ChargeNet NZ","DC",50,"DC 50 kW CHAdeMO, DC 50 kW Type 2 CCS",1,0,"73 Queen St, Cambridge 3434",175.4678474,-37.8915803,"Yes"
"Marlborough","Nelson and Marlborough","ChargeNet NZ","ChargeNet NZ","DC",50,"DC 50 kW CHAdeMO, DC 50 kW Type 2 CCS",1,0,"7326 State Highway 1, Ward 7285, NZ",174.1307674,-41.8292879,"Yes"
"Hawke's Bay","Hawke's Bay","ChargeNet NZ","Eastland Energy Solutions Limited","DC",50,"DC 50 kW CHAdeMO, DC 50 kW Type 2 CCS",1,0,"75 Queen St, Wairoa 4108",177.4216611,-39.0343291,"Yes"
"Tasman","Nelson and Marlborough","ChargeNet NZ","ChargeNet NZ","DC",50,"DC 50 kW CHAdeMO, DC 50 kW Type 2 CCS",1,0,"75 Vanguard St, Nelson 7010, NZ",173.2773678,-41.2758907,"Yes"
"Canterbury","Christchurch","ChargeNet NZ","Orion New Zealand Ltd","DC",50,"DC 50 kW CHAdeMO, DC 50 kW Type 2 CCS",1,0,"77 Gerald St, Lincoln 7674",172.473668,-43.6422817,"Yes"
"Taranaki","Taranaki","ChargeNet NZ","ChargeNet NZ","DC",50,"DC 50 kW CHAdeMO, DC 50 kW Type 2 CCS",1,0,"78 Courtenay St, New Plymouth 4310",174.0757525,-39.0580468,"Yes"
"Wellington","Wellington","ChargeNet NZ","ChargeNet NZ","DC",50,"DC 50 kW CHAdeMO, DC 50 kW Type 2 CCS",1,0,"78 Rongotai Rd, Wellington 6022",174.7964823,-41.3183505,"Yes"
"Waikato","Waikato","ChargeNet NZ","ChargeNet NZ","DC",50,"DC 50 kW CHAdeMO, DC 50 kW Type 2 CCS",1,0,"79/89-97 Thames St, Morrinsville 3300, NZ",175.5225516,-37.6598084,"Yes"
"Wellington","Wellington","ChargeNet NZ","ChargeNet NZ","DC",50,"DC 50 kW CHAdeMO, DC 50 kW Type 2 CCS",1,0,"7D Wellington Rd, Paekakariki 5034, NZ",174.951216,-40.9875713,"Yes"
"Canterbury","Canterbury","ChargeNet NZ","ChargeNet NZ","DC",50,"DC 50 kW CHAdeMO, DC 50 kW Type 2 CCS",1,0,"80 State Highway 73, Arthurs Pass 7875",171.563088,-42.941842,"Yes"
"Tasman","Nelson and Marlborough","ChargeNet NZ","Network Tasman Ltd","DC",50,"DC 50 kW CHAdeMO, DC 50 kW Type 2 CCS",1,0,"81 Trafalgar Street, Nelson 7010, NZ",173.284786,-41.270097,"No"
"Otago","Otago","ChargeNet NZ","ChargeNet NZ","DC",50,"DC 50 kW CHAdeMO, DC 50 kW Type 2 CCS",1,0,"86 Hillside Rd, Dunedin 9012",170.499025,-45.8925435,"Yes"
"Northland","Northland","ChargeNet NZ","ChargeNet NZ","DC",50,"DC 50 kW CHAdeMO, DC 50 kW Type 2 CCS",1,0,"88 Dent St, Whangarei 0110, NZ",174.325472,-35.7254108,"Yes"
"Otago","Otago","ChargeNet NZ","ChargeNet NZ","DC",50,"DC 50 kW CHAdeMO, DC 50 kW Type 2 CCS, DC 50 kW CHAdeMO, DC 50 kW Type 2 CCS",2,0,"9 Athol St, Queenstown 9300, NZ",168.6618081,-45.030925,"No"
"Northland","Northland","ChargeNet NZ","ChargeNet NZ","DC",50,"DC 50 kW CHAdeMO, DC 50 kW Type 2 CCS",1,0,"9 Coopers Dr, Coopers Beach 0420, NZ",173.5093917,-34.9921631,"No"
"Hawke's Bay","Hawke's Bay","ChargeNet NZ","ChargeNet NZ","DC",50,"DC 50 kW CHAdeMO, DC 50 kW Type 2 CCS",1,0,"9 Gloucester St, Napier 4112",176.8620115,-39.5251237,"Yes"
"Waikato","Hamilton","WEL Networks Ltd","WEL Networks Ltd","DC",50,"DC 50 kW CHAdeMO, DC 50 kW Type 2 CCS",1,0,"9 Melody Lane, Hamilton East",175.308828634049,-37.778014543995,"Yes"
"Otago","Otago","ChargeNet NZ","ChargeNet NZ","DC",50,"DC 50 kW CHAdeMO, DC 50 kW Type 2 CCS",1,0,"9 Thompson St, Alexandra 9320",169.394599,-45.2561577,"No"
"Canterbury","Christchurch","ChargeNet NZ","Orion New Zealand Ltd","DC",50,"DC 50 kW CHAdeMO, DC 50 kW Type 2 CCS",1,0,"92 Rolleston Drive, Rolleston 7614",172.3825412,-43.5968657,"Yes"
"Canterbury","Canterbury","ChargeNet NZ","ChargeNet NZ","DC",50,"DC 50 kW CHAdeMO, DC 50 kW Type 2 CCS",1,0,"98 Evans St, Timaru 7910",171.23771,-44.38446,"Yes"
"Wellington","Wellington","ChargeNet NZ","Contact Energy Ltd","DC",50,"DC 50 kW CHAdeMO, DC 50 kW Type 2 CCS",1,0,"Barnett Street, Wellington 6011",174.7835258,-41.2908391,"No"
"Waikato","Waikato","ChargeNet NZ","ChargeNet NZ","DC",50,"DC 50 kW CHAdeMO, DC 50 kW Type 2 CCS",1,0,"Bridge Street, Tokoroa 3420, NZ",175.8661263,-38.2195058,"Yes"
"Taranaki","Taranaki","ChargeNet NZ","ChargeNet NZ","DC",50,"DC 50 kW CHAdeMO, DC 50 kW Type 2 CCS",1,0,"Chester Street, Waverley 4510",174.6350499,-39.7605871,"Yes"
"Auckland","Auckland","ChargeNet NZ","ChargeNet NZ","DC",50,"DC 50 kW CHAdeMO, DC 50 kW Type 2 CCS",1,0,"Clarence St, Auckland 0624",174.7954805,-36.8299416,"Yes"
"Manawatu-Whanganui","Manawatu-Whanganui","ChargeNet NZ","ChargeNet NZ","DC",50,"DC 50 kW CHAdeMO, DC 50 kW Type 2 CCS, DC 50 kW CHAdeMO, DC 50 kW Type 2 CCS",2,0,"Clyde St, Foxton 4814",175.2806889,-40.4717718,"Yes"
"Hawke's Bay","Napier","ChargeNet NZ","Unison Networks Limited","DC",50,"DC 50 kW CHAdeMO, DC 50 kW Type 2 CCS",1,0,"Cnr McVicar Rd and SH5",176.6253059,-39.1740897,"No"
"Northland","Northland","ChargeNet NZ","ChargeNet NZ","DC",50,"DC 50 kW CHAdeMO, DC 50 kW Type 2 CCS",1,0,"Corner of SH 1 and Mathews Ave, Kaitaia 0410",173.2590583,-35.1034182,"Yes"
"Tasman","Tasman","ChargeNet NZ","ChargeNet NZ","DC",50,"DC 50 kW CHAdeMO, DC 50 kW Type 2 CCS",1,0,"Fairfax St, Murchison 7007, NZ",172.3254033,-41.8037535,"Yes"
"Auckland","Auckland","Vector","Vector","DC",50,"DC 50 kW CHAdeMO, DC 50 kW CHAdeMO, DC 50 kW Type 2 CCS, DC 50 kW Type 2 CCS, DC 50 kW Type 2 CCS, DC 50 kW CHAdeMO",3,0,"George Bolt Memorial Drive & John Goulter Drive,Auckland Airport,Auckland,2022",174.7855756,-36.9864748,"No"
"Manawatu-Whanganui","Manawatu-Whanganui","ChargeNet NZ","ChargeNet NZ","DC",50,"DC 50 kW CHAdeMO, DC 50 kW Type 2 CCS",1,0,"Gordon Street Carpark, Dannevirke 4930",176.099117,-40.209831,"Yes"
"Wellington","Wellington","ChargeNet NZ","Contact Energy Ltd","DC",50,"DC 50 kW CHAdeMO, DC 50 kW Type 2 CCS",1,0,"Grey Street, Wellington 6011, NZ",174.7762085,-41.2846771,"No"
"Bay of Plenty","Bay of Plenty","ChargeNet NZ","ChargeNet NZ","DC",50,"DC 50 kW CHAdeMO, DC 50 kW Type 2 CCS",1,0,"Hemo Rd, Rotorua 3010, NZ",176.2502042,-38.1632425,"Yes"
"Wellington","Wellington","ChargeNet NZ","ChargeNet NZ","DC",50,"DC 50 kW CHAdeMO, DC 50 kW Type 2 CCS",1,0,"Inglewood Place, Wellington 6011, NZ",174.7784218,-41.2927062,"No"
"Manawatu-Whanganui","Ohakune","The Lines Company Ltd","The Lines Company Ltd","DC",50,"DC 50 kW CHAdeMO, DC 50 kW Type 2 CCS",1,0,"Mangateitei Terrace, Ohakune",175.3986808,-39.4189264,"Yes"
"Auckland","Auckland","ChargeNet NZ","ChargeNet NZ","DC",50,"DC 50 kW CHAdeMO, DC 50 kW CHAdeMO",2,0,"Mill Rd, Bombay 1010, NZ",174.9752847,-37.1942719,"No"
"Wellington","Wellington","ChargeNet NZ","ChargeNet NZ","DC",50,"DC 50 kW CHAdeMO, DC 50 kW Type 2 CCS",1,0,"Opposite 34 Tutere St, Waikanae 5036, NZ",175.0243663,-40.8615682,"No"
"Canterbury","Canterbury","ChargeNet NZ","Alpine Energy Limited","DC",50,"DC 50 kW CHAdeMO, DC 50 kW Type 2 CCS",1,0,"Opposite 53 Main St, Fairlie 7925",170.8290354,-44.1001749,"No"
"Canterbury","Canterbury","ChargeNet NZ","Alpine Energy Limited","DC",50,"DC 50 kW CHAdeMO, DC 50 kW Type 2 CCS",1,0,"Opposite 64 MacKenzie Drive, Twizel 7901",170.1008201,-44.2566656,"No"
"West Coast","West Coast","ChargeNet NZ","Project Engineering NZ","DC",50,"DC 50 kW CHAdeMO, DC 50 kW Type 2 CCS",1,0,"Otira Hwy, Otira 7875",171.5760802,-42.8018084,"Yes"
"Manawatu-Whanganui","Otorohanga","The Lines Company Ltd","The Lines Company Ltd","DC",50,"DC 50 kW CHAdeMO, DC 50 kW Type 2 CCS",1,0,"Otorohonga Railway Station, Otorohonga",175.212258,-38.186697,"Yes"
"Manawatu-Whanganui","Manawatu-Whanganui","ChargeNet NZ","ChargeNet NZ","DC",50,"DC 50 kW CHAdeMO, DC 50 kW Type 2 CCS, DC 50 kW CHAdeMO, DC 50 kW Type 2 CCS",2,0,"Plimmer Tce, Shannon 4821, NZ",175.4107541,-40.5472646,"Yes"
"Wellington","Wellington","ChargeNet NZ","ChargeNet NZ","DC",50,"DC 50 kW CHAdeMO, DC 50 kW Type 2 CCS, DC 50 kW CHAdeMO, DC 50 kW Type 2 CCS",2,0,"Rimu Rd, Paraparaumu 5032, NZ",174.9996166,-40.9190538,"Yes"
"Waikato","Waikato","ChargeNet NZ","ChargeNet NZ","DC",50,"DC 50 kW CHAdeMO, DC 50 kW CHAdeMO",2,0,"Roberts St, Taupo 3300",176.0745894,-38.69077,"Yes"
"Waikato","Taupo","ChargeNet NZ","ChargeNet NZ","DC",50,"DC 50 kW CHAdeMO, DC 50 kW Type 2 CCS",0,1,"Ruapehu St Taupo Waikato",176.0722821,-38.6871672,"No"
"Auckland","Auckland","ChargeNet NZ","Vector","DC",50,"DC 50 kW CHAdeMO, DC 50 kW Type 2 CCS, DC 50 kW CHAdeMO, DC 50 kW Type 2 CCS",2,0,"Cnr Gillies Ave and Seccombes Road, Newmarket, Auckland, 1023",174.7713051,-36.8683795,"No"
"Canterbury","Canterbury","ChargeNet NZ","ChargeNet NZ","DC",50,"DC 50 kW CHAdeMO, DC 50 kW Type 2 CCS",1,0,"SH 73, Springfield 7681",171.8606607,-43.3265038,"Yes"
"Otago","Otago","ChargeNet NZ","ChargeNet NZ","DC",50,"DC 50 kW CHAdeMO, DC 50 kW Type 2 CCS",1,0,"St David St, Dunedin 9016, NZ",170.5152214,-45.8637208,"No"
"Manawatu-Whanganui","Manawatu-Whanganui","ChargeNet NZ","ChargeNet NZ","DC",50,"DC 50 kW CHAdeMO, DC 50 kW Type 2 CCS, DC 50 kW CHAdeMO, DC 50 kW Type 2 CCS",2,0,"State Highway 1, Waiouru 4861",175.6842229,-39.5261032,"No"
"Northland","Northland","ChargeNet NZ","ChargeNet NZ","DC",50,"DC 50 kW CHAdeMO, DC 50 kW Type 2 CCS",1,0,"State Highway 1, Waitiki Landing 0484, NZ",172.840523,-34.517702,"Yes"
"Canterbury","Canterbury","ChargeNet NZ","Alpine Energy Limited","DC",50,"DC 50 kW CHAdeMO, DC 50 kW Type 2 CCS",1,0,"State Highway 8, Tekapo 7999",170.4793338,-44.0060478,"Yes"
"Manawatu-Whanganui","Manawatu-Whanganui","ChargeNet NZ","ChargeNet NZ","DC",50,"DC 50 kW CHAdeMO, DC 50 kW Type 2 CCS",1,0,"State Hwy 4 & Waimarino Tokaanu Rd, New Zealand",175.402,-39.176,"Yes"
"Manawatu-Whanganui","Manawatu-Whanganui","ChargeNet NZ","ChargeNet NZ","DC",50,"DC 50 kW CHAdeMO, DC 50 kW Type 2 CCS",1,0,"Tararua iSite, Woodville 4920",175.8658333,-40.3366667,"Yes"
"Auckland","Auckland","ChargeNet NZ","ChargeNet NZ","DC",50,"DC 50 kW CHAdeMO, DC 50 kW Type 2 CCS",1,0,"Tawhia Dr, Auckland 0814",174.6085381,-36.8173272,"Yes"
"Manawatu-Whanganui","Manawatu-Whanganui","ChargeNet NZ","ChargeNet NZ","DC",50,"DC 50 kW CHAdeMO, DC 50 kW Type 2 CCS",1,0,"The Square, Palmerston North 4410",175.6120677,-40.3557104,"Yes"
"Otago","Dunedin","ChargeNet NZ","ChargeNet NZ","DC",50,"DC 25 kW CHAdeMO, DC 25 kW Type 2 CCS",1,0,"Water St, Dunedin 9016, NZ",170.5028188,-45.8787241,"No"
"Auckland","Auckland",NA,"WEL Network","DC",50,NA,0,1,"201 Rodney St Wellsford Auckland",174.5238131,-36.2936959,"No"
"Bay of Plenty","Tauranga","ChargeNet NZ","ChargeNet NZ","DC",175,"DC 50 kW CHAdeMO, DC 50 kW Type 2 CCS",1,0,"116 Hewletts Road, Mount Maunganui 3110",176.1959442,-37.665213,"Yes"
"Waikato","Te Rapa","Ebbett Waikato Ltd","Ebbett Waikato Ltd","DC",175,"DC 175 kW CHAdeMO, DC 175 kW Type 2 CCS",1,0,"51-55 Te Kowhai Rd, Hamilton",175.2247911,-37.7461647,"Yes"
"Auckland","Auckland","ChargeNet NZ","ChargeNet NZ","DC",300,"DC 300 kW Type 2 CCS, DC 300 kW Type 2 CCS, DC 300 kW Type 2 CCS, DC 300 kW Type 2 CCS",4,0,"Mill Rd, Bombay 1010, NZ",174.9752847,-37.1942719,"Yes"
"Waikato","Waikato","ChargeNet NZ","ChargeNet NZ","DC",300,"DC 300 kW Type 2 CCS, DC 300 kW Type 2 CCS, DC 300 kW Type 2 CCS, DC 300 kW Type 2 CCS",4,0,"Roberts St, Taupo 3300",176.0745894,-38.69077,"Yes"
"Otago","Dunedin","ChargeNet NZ","ChargeNet NZ","DC",300,NA,0,1,"10 Wharf Street, Dunedin Central, Dunedin 9016",170.5,-45.88,"Yes"
"Bay Of Plenty","Kaiwaka","ChargeNet NZ","ChargeNet NZ","DC",300,NA,0,1,"120 Kaiwaka Mangawhai Road, Kaiwaka 0975",174.44,-36.16,"Yes"
"Manawatu-Whanganui","Bulls","ChargeNet NZ","ChargeNet NZ","DC",300,NA,0,1,"298 State Highway 1, Bulls 4894",175.38,-40.17,"Yes"
"Canterbury","Christchurch","ChargeNet NZ","ChargeNet NZ","DC",300,NA,0,1,"Cheapa Campa, 575 Memorial Avenue, Burnside, Christchurch 8053",172.55,-43.48,"Yes"
