con-ID,con-ConnectionTypeID,con-StatusTypeID,con-LevelID,con-Amps,con-Voltage,con-PowerKW,con-CurrentTypeID,con-Quantity,ID,UsageCost,OperatorID,StatusTypeID,NumberOfPoints,UsageTypeID,AddressInfo.Title,AddressInfo.Town,AddressInfo.AddressLine1,AddressInfo.StateOrProvince,AddressInfo.Postcode,AddressInfo.Latitude,AddressInfo.Longitude
206268,Type 2 (Socket Only),Operational,2,32,230,7,AC (Single-Phase),4,148539,Free,3,50,4,4,Tesco Superstore-Braintree Great Notley,Chelmsford,1 the Square,Braintree,CM77 7WW,51.857605,0.521807
191829,Type 2 (Socket Only),Unknown,2,32,400,22,AC (Three-Phase),,137034,,3315,0,,1,"University of St Andrews, Bute Building Annex",Kirkcaldy,Queens Terrace,,KY16 9TS,56.338011,-2.793738
191830,Type 2 (Socket Only),Unknown,2,32,400,22,AC (Three-Phase),,137034,,3315,0,,1,"University of St Andrews, Bute Building Annex",Kirkcaldy,Queens Terrace,,KY16 9TS,56.338011,-2.793738
34678,Type 2 (Socket Only),Operational,2,32,230,7,AC (Single-Phase),2,19652,Inclusive; for Polar Plus subscription members only,32,50,2,4,Asda Ferring Superstore,Brighton, Littlehampton Rd,West Sussex,BN12 6PN,50.81805893,-0.458707152
51489,BS1363 3 Pin 13 Amp,Operational,2,13,230,3,AC (Single-Phase),2,19652,Inclusive; for Polar Plus subscription members only,32,50,2,4,Asda Ferring Superstore,Brighton, Littlehampton Rd,West Sussex,BN12 6PN,50.81805893,-0.458707152
19200,Type 2 (Socket Only),Operational,2,32,230,7,AC (Single-Phase),2,18940,Inclusive; for Polar Plus subscription members only. Parking fees apply.,32,50,2,4,Tile Hill Park & Ride,Coventry,Alan Higgs Way,,CV4 8LX,52.394903,-1.59543
143705,Type 2 (Socket Only),Operational,2,32,230,7,AC (Single-Phase),2,101805,Inclusive; for Polar Plus subscription members only,32,50,2,4,Aldermans Hill,London,Aldermans Hill,London,N13 4PN,51.618561,-0.111586
57935,Type 2 (Socket Only),Operational,2,32,400,22,AC (Three-Phase),2,47052,Free,3315,50,2,4,Horizon Scotland,Inverness,Forres Enterprise Park,Moray,IV23 2AB,57.61435444,-3.567043739
303215,Type 2 (Socket Only),Operational,2,16,230,3.7,AC (Single-Phase),,187887,,3345,0,,5,CV5 8AQ,Coventry,,,CV5 8AQ,52.40883,-1.553506
120127,Type 2 (Socket Only),Operational,2,32,230,7,AC (Single-Phase),1,84566,Inclusive; for Polar Plus subscription members only,32,50,2,4,Salt Hill Park,Slough,Bath Road,,SL1 2DS,51.51209477,-0.606890915
120128,BS1363 3 Pin 13 Amp,Operational,2,13,230,3,AC (Single-Phase),1,84566,Inclusive; for Polar Plus subscription members only,32,50,2,4,Salt Hill Park,Slough,Bath Road,,SL1 2DS,51.51209477,-0.606890915
359,BS1363 3 Pin 13 Amp,Not Operational,2,13,230,3,AC (Single-Phase),1,5249,Free,20,75,2,4,Nile Street,Sunderland,Nile Street,Tyne and Wear,SR1 1ES,54.9058554,-1.3762451
64498,Type 2 (Socket Only),Partly Operational (Mixed),2,32,230,7,AC (Single-Phase),2,5249,Free,20,75,2,4,Nile Street,Sunderland,Nile Street,Tyne and Wear,SR1 1ES,54.9058554,-1.3762451
263641,Type 2 (Socket Only),Operational,2,32,230,7,AC (Single-Phase),4,172428,Free,3,50,4,4,Tesco Superstore Clitheroe,Blackburn,Duck St,England,BB7 1LP,53.87274095,-2.388137294
26268,Type 2 (Socket Only),Operational,2,32,230,7,AC (Single-Phase),6,24086,Free,19,50,12,1,Redfields Garden Centre,Guildford,Ewshot Lane,Hampshire,GU52 8UB,51.25487,-0.846748
26269,BS1363 3 Pin 13 Amp,Operational,2,13,230,3,AC (Single-Phase),6,24086,Free,19,50,12,1,Redfields Garden Centre,Guildford,Ewshot Lane,Hampshire,GU52 8UB,51.25487,-0.846748
148697,Tesla (Model S/X),Operational,2,32,230,13,AC (Three-Phase),1,105515,,23,50,1,7,Brewery House Bed & Breakfast,Dumfries,23 King Street,,DG86DQ,54.963404,-4.485371
206162,Type 2 (Socket Only),Operational,2,32,400,22,AC (Three-Phase),,148493,,150,0,,5,North Norfolk District Council Holt Road,Norwich,North Norfolk District Council Holt Road,,NR27 9EN,52.9254,1.28632
206163,Type 2 (Socket Only),Operational,2,32,400,22,AC (Three-Phase),,148493,,150,0,,5,North Norfolk District Council Holt Road,Norwich,North Norfolk District Council Holt Road,,NR27 9EN,52.9254,1.28632
226613,CCS (Type 2),Operational,3,,,150,DC,2,157336,Contactless:£0.40/kWh;Polar Instant: £0.35/kWh;Polar Plus subscribers: £0.204/kWh,32,50,2,5,BP Chargemaster Head Office,Milton Keynes,Breckland,Milton Keynes,MK14 6GY,52.0577211,-0.767372415
226614,CHAdeMO,Operational,3,,,62.5,DC,2,157336,Contactless:£0.40/kWh;Polar Instant: £0.35/kWh;Polar Plus subscribers: £0.204/kWh,32,50,2,5,BP Chargemaster Head Office,Milton Keynes,Breckland,Milton Keynes,MK14 6GY,52.0577211,-0.767372415
226615,CCS (Type 2),Operational,3,,,50,DC,2,157336,Contactless:£0.40/kWh;Polar Instant: £0.35/kWh;Polar Plus subscribers: £0.204/kWh,32,50,2,5,BP Chargemaster Head Office,Milton Keynes,Breckland,Milton Keynes,MK14 6GY,52.0577211,-0.767372415
226616,CHAdeMO,Operational,3,,,50,DC,2,157336,Contactless:£0.40/kWh;Polar Instant: £0.35/kWh;Polar Plus subscribers: £0.204/kWh,32,50,2,5,BP Chargemaster Head Office,Milton Keynes,Breckland,Milton Keynes,MK14 6GY,52.0577211,-0.767372415
226617,Type 2 (Tethered Connector),Operational,3,63,400,43,AC (Three-Phase),2,157336,Contactless:£0.40/kWh;Polar Instant: £0.35/kWh;Polar Plus subscribers: £0.204/kWh,32,50,2,5,BP Chargemaster Head Office,Milton Keynes,Breckland,Milton Keynes,MK14 6GY,52.0577211,-0.767372415
226618,Type 2 (Socket Only),Operational,2,32,230,7,AC (Single-Phase),2,157336,Contactless:£0.40/kWh;Polar Instant: £0.35/kWh;Polar Plus subscribers: £0.204/kWh,32,50,2,5,BP Chargemaster Head Office,Milton Keynes,Breckland,Milton Keynes,MK14 6GY,52.0577211,-0.767372415
101958,Type 2 (Socket Only),Operational,2,32,230,7,AC (Single-Phase),2,71160,Free. Parking fees apply,20,50,2,4,Waterloo Street Car Park,Oldham,Waterloo Street,Greater Manchester,OL1 1EW,53.5405972,-2.1077462
191116,Type 2 (Socket Only),Operational,2,16,230,3.7,AC (Single-Phase),,136625,,2244,0,,4,Hamilton Road,Oxford,Hamilton Road,,OX2 7PY,51.781475,-1.263562
162062,Type 2 (Tethered Connector),Operational,3,,,43,AC (Three-Phase),1,115145,£1.00 + £0.30/kWh,150,50,1,4,MFG Jet Bridge,Doncaster,Bridge Road,,DN21 1JU,53.392519,-0.775156
162063,CHAdeMO,Operational,3,,,50,DC,1,115145,£1.00 + £0.30/kWh,150,50,1,4,MFG Jet Bridge,Doncaster,Bridge Road,,DN21 1JU,53.392519,-0.775156
162064,CCS (Type 2),Operational,3,,,50,DC,1,115145,£1.00 + £0.30/kWh,150,50,1,4,MFG Jet Bridge,Doncaster,Bridge Road,,DN21 1JU,53.392519,-0.775156
266418,Type 2 (Socket Only),Operational,2,16,230,3.7,AC (Single-Phase),,173393,,2244,0,,1,38 King Henry's Road,London,38 King Henry's Road,,NW3 3RP,51.542602,-0.159085
154284,Tesla (Model S/X),Operational,2,,,6,AC (Single-Phase),1,109166,,23,50,1,4,Knock Castle Hotel & Spa,Perth,Knock Castle Hotel & Spa,,PH7 4AN,56.380648,-3.846406
140860,CCS (Type 2),Operational,3,,,50,DC,1,99704,£0.108/kWh; for Polar Plus subscription members only. £0.22/kWh for contactless payment cards,32,50,1,4,376 Hendon Way,London,376 Hendon Way,,NW4 3LP,51.581303,-0.226801
140861,CHAdeMO,Operational,3,,,50,DC,1,99704,£0.108/kWh; for Polar Plus subscription members only. £0.22/kWh for contactless payment cards,32,50,1,4,376 Hendon Way,London,376 Hendon Way,,NW4 3LP,51.581303,-0.226801
140862,Type 2 (Tethered Connector),Operational,3,63,400,43,AC (Three-Phase),1,99704,£0.108/kWh; for Polar Plus subscription members only. £0.22/kWh for contactless payment cards,32,50,1,4,376 Hendon Way,London,376 Hendon Way,,NW4 3LP,51.581303,-0.226801
266803,Type 2 (Socket Only),Operational,2,32,230,7,AC (Single-Phase),,173669,,,0,,1,Northumberland Road,Coventry,Northumberland Road,,CV1 3AP,52.409669,-1.524476
190711,Type 2 (Socket Only),Operational,2,16,230,3.7,AC (Single-Phase),,136275,,2244,0,,5,63-79 Seymour Street,London,63-79 Seymour Street,,W2 2JJ,51.513954,-0.162314
207951,Type 2 (Socket Only),Operational,2,16,230,3.7,AC (Single-Phase),,149778,,3391,0,,1,West Hill Street,Brighton,West Hill Street,,BN1 3RR,50.829389,-0.145706
128918,Type 2 (Socket Only),Operational,2,32,230,7,AC (Single-Phase),1,90876,1,3,0,1,6,City Centre Car Care LTD,Birmingham,260 Bradford Street,,B12 0QY,52.473176,-1.885019
187854,Type 2 (Tethered Connector),Operational,3,,,43,AC (Three-Phase),1,134248,Free,20,50,1,4,Seahouses Station Yard Car Park,Newcastle upon Tyne,Station Yard Car Park,,NE68 7RQ,55.58123,-1.65419
187855,CHAdeMO,Operational,3,,,50,DC,1,134248,Free,20,50,1,4,Seahouses Station Yard Car Park,Newcastle upon Tyne,Station Yard Car Park,,NE68 7RQ,55.58123,-1.65419
187856,CCS (Type 2),Operational,3,,,50,DC,1,134248,Free,20,50,1,4,Seahouses Station Yard Car Park,Newcastle upon Tyne,Station Yard Car Park,,NE68 7RQ,55.58123,-1.65419
227297,CHAdeMO,Operational,3,125,400,50,DC,,157766,,8,0,,4,Park Gate,Southampton,Park Gate,,SO31 1AZ,50.875622,-1.268603
227298,CHAdeMO,Operational,3,125,400,50,DC,,157766,,8,0,,4,Park Gate,Southampton,Park Gate,,SO31 1AZ,50.875622,-1.268603
130093,Type 2 (Socket Only),Operational,2,32,230,7,AC (Single-Phase),2,91764,Free,3,50,2,4,The Betsey Wynne,Milton Keynes,21 Mursley Road,,MK17 0SH,51.939167,-0.830254
203115,CCS (Type 2),Not Operational,3,,,50,DC,1,146177,£0.20/kWh; min £1.50,20,75,1,4,Gibb Street Car Park,Nottingham,Gibb Street Car Park,Derbyshire,NG10 1EE,52.8958,-1.2692
203116,CHAdeMO,Operational,3,,,50,DC,1,146177,£0.20/kWh; min £1.50,20,75,1,4,Gibb Street Car Park,Nottingham,Gibb Street Car Park,Derbyshire,NG10 1EE,52.8958,-1.2692
203117,Type 2 (Tethered Connector),Operational,3,,,43,AC (Three-Phase),1,146177,£0.20/kWh; min £1.50,20,75,1,4,Gibb Street Car Park,Nottingham,Gibb Street Car Park,Derbyshire,NG10 1EE,52.8958,-1.2692
228086,Type 2 (Socket Only),Operational,2,32,230,7,AC (Single-Phase),,158169,,20,0,,4,Haltwhistle,Newcastle upon Tyne,Cawfields Car Park,,NE49 9PJ,54.992739,-2.450545
125603,Type 2 (Socket Only),Operational,2,32,230,7,AC (Single-Phase),2,88545,Inclusive; for Polar Plus subscription members only,32,50,2,4,Kier Partnership Homes LTD,Guildford,Westfield Way,Surrey,GU22 9NU,51.296673,-0.556391
72734,Type 2 (Socket Only),Operational,2,32,400,22,AC (Three-Phase),2,57547,Free,3315,50,2,4,Beechwood Avenue Car Park,Kilmarnock,Beechwood Avenue,,KA18 2AW,55.46867,-4.29264
203633,Type 2 (Socket Only),Operational,2,32,230,7,AC (Single-Phase),4,146462,£0.20/kWh;min £1.00,20,50,4,4,Four Seasons Multi-Storey Car Park,Nottingham,Four Seasons Multi-Storey Car Park,Nottinghamshire,NG18 1SU,53.14540552,-1.198848601
207984,Type 2 (Socket Only),Operational,2,32,400,22,AC (Three-Phase),1,149797,,3392,50,,1,Clifton Park & Museum,Sheffield,49 Clifton Lane,,S65 2AH,53.4291,-1.346627
207985,Type 2 (Socket Only),Operational,2,32,400,22,AC (Three-Phase),1,149797,,3392,50,,1,Clifton Park & Museum,Sheffield,49 Clifton Lane,,S65 2AH,53.4291,-1.346627
128945,Type 2 (Socket Only),Operational,2,32,230,7,AC (Single-Phase),3,90899,Free,3,50,3,6,SG Petch Middlesbrough-Hyundai,Teesside,1 Fleming Road,Cleveland,TS6 6TT,54.572205,-1.178177
227341,Type 2 (Socket Only),Operational,2,32,230,7,AC (Single-Phase),,157789,,8,0,,4,One Springfield Drive,Kingston upon Thames,One Springfield Drive,,KT22 7NL,51.306583,-0.342944
227342,Type 2 (Socket Only),Operational,2,32,400,22,AC (Three-Phase),,157789,,8,0,,4,One Springfield Drive,Kingston upon Thames,One Springfield Drive,,KT22 7NL,51.306583,-0.342944
143192,CCS (Type 2),Operational,3,,,50,DC,1,101413,£0.108/kWh; for Polar Plus subscription members only,32,50,1,4,Woodlands Park Hotel,Kingston upon Thames,Woodlands Lane,,KT11 3QB,51.316898,-0.3632
143193,CHAdeMO,Operational,3,,,50,DC,1,101413,£0.108/kWh; for Polar Plus subscription members only,32,50,1,4,Woodlands Park Hotel,Kingston upon Thames,Woodlands Lane,,KT11 3QB,51.316898,-0.3632
143194,Type 2 (Tethered Connector),Operational,3,,,43,AC (Three-Phase),1,101413,£0.108/kWh; for Polar Plus subscription members only,32,50,1,4,Woodlands Park Hotel,Kingston upon Thames,Woodlands Lane,,KT11 3QB,51.316898,-0.3632
191352,CHAdeMO,Operational,3,125,400,50,DC,2,136760,£0.40/kWh,3296,50,,5,Queens Road Parking/Charging,Sheffield,Queens Road,,S2 4EP,53.369358,-1.465098
191353,CCS (Type 2),Operational,3,125,400,50,DC,2,136760,£0.40/kWh,3296,50,,5,Queens Road Parking/Charging,Sheffield,Queens Road,,S2 4EP,53.369358,-1.465098
203144,Type 2 (Socket Only),Partly Operational (Mixed),2,32,230,7,AC (Single-Phase),6,146198,Free,3315,75,6,4,"Townhead Street Car Park, Cumnock",Kilmarnock,Townhead Street Car Park,,KA18 1LY,55.453976,-4.262283
65605,Type 2 (Socket Only),Operational,2,32,230,7,AC (Single-Phase),34,52745,£0.108/kWh; for Polar Plus subscription members only. Parking fees apply.,32,50,34,4,"Q-Park Park Lane, London",London,Park Lane,,W1K 7TY,51.5093,-0.156662
65606,BS1363 3 Pin 13 Amp,Operational,2,13,230,3,AC (Single-Phase),18,52745,£0.108/kWh; for Polar Plus subscription members only. Parking fees apply.,32,50,34,4,"Q-Park Park Lane, London",London,Park Lane,,W1K 7TY,51.5093,-0.156662
119840,CCS (Type 2),Operational,3,,,50,DC,1,52745,£0.108/kWh; for Polar Plus subscription members only. Parking fees apply.,32,50,34,4,"Q-Park Park Lane, London",London,Park Lane,,W1K 7TY,51.5093,-0.156662
119841,Type 2 (Tethered Connector),Operational,3,,,43,AC (Three-Phase),1,52745,£0.108/kWh; for Polar Plus subscription members only. Parking fees apply.,32,50,34,4,"Q-Park Park Lane, London",London,Park Lane,,W1K 7TY,51.5093,-0.156662
119842,CHAdeMO,Operational,3,,,50,DC,1,52745,£0.108/kWh; for Polar Plus subscription members only. Parking fees apply.,32,50,34,4,"Q-Park Park Lane, London",London,Park Lane,,W1K 7TY,51.5093,-0.156662
228116,Type 2 (Socket Only),Operational,2,32,230,7,AC (Single-Phase),,158186,,8,0,,4,South Road,Newcastle upon Tyne,South Road,,NE66 2NS,55.410568,-1.697553
76288,Type 2 (Socket Only),Operational,2,32,230,7,AC (Single-Phase),2,60264,Free,3,50,22,6,Volkswagen Group UK Headquarters,Milton Keynes,Delaware Drive,Buckinghamshire,MK14 5AN,52.06996082,-0.735722427
60695,Type 2 (Socket Only),Operational,2,16,230,7,AC (Single-Phase),2,49109,Free,3,50,2,1,intu Merry Hill Shopping,Dudley,Merry Hill Centre,,DY5 1QX,52.48314363,-2.109679808
190770,Type 2 (Socket Only),Operational,2,16,230,3.7,AC (Single-Phase),,136330,,2244,0,,5,Vault,London,Vault,,W1T 5EN,51.523691,-0.138698
150523,Type 2 (Socket Only),Operational,2,32,230,7,AC (Single-Phase),53,106786,Free,45,50,53,3,Costco Wembley,Harrow,"30, Second Way",England,HA9 0YJ,51.5568993,-0.2723249
266831,Type 2 (Socket Only),Operational,2,32,230,7,AC (Single-Phase),,173686,,3403,0,,5,Wood Lane,Leicester,Wood Lane,,LE7 9WE,52.602704,-0.871898
266832,Type 2 (Socket Only),Operational,2,32,230,7,AC (Single-Phase),,173686,,3403,0,,5,Wood Lane,Leicester,Wood Lane,,LE7 9WE,52.602704,-0.871898
264660,Type 2 (Socket Only),Operational,2,32,400,22,AC (Three-Phase),3,172994,£0.36/kWh (contactless) or £0.31/kWh with the Osprey Charging app,203,50,1,5,Lidl High Wycombe ,Hemel Hempstead,18 Pinions Rd,England,HP13 7AT,51.62262183,-0.728511304
264661,CHAdeMO,Operational,3,125,400,50,DC,3,172994,£0.36/kWh (contactless) or £0.31/kWh with the Osprey Charging app,203,50,1,5,Lidl High Wycombe ,Hemel Hempstead,18 Pinions Rd,England,HP13 7AT,51.62262183,-0.728511304
264662,CCS (Type 2),Operational,3,125,400,50,DC,3,172994,£0.36/kWh (contactless) or £0.31/kWh with the Osprey Charging app,203,50,1,5,Lidl High Wycombe ,Hemel Hempstead,18 Pinions Rd,England,HP13 7AT,51.62262183,-0.728511304
18776,Type 2 (Socket Only),Operational,2,32,230,7,,2,18556,,1,50,,4,University of Wolverhampton - Walsall Campus,Walsall,WA Building,Walsall Campus,WS1 3BD,52.57227,-1.96988
158092,Type 2 (Socket Only),Operational,2,32,400,22,AC (Three-Phase),2,112395,Free,3315,50,2,4,"West Harris Trust, Isle of Harris",Hebrides,"West Harris Trust, Isle of Harris",,HS3 3AE,57.85963,-6.99324
303186,Type 2 (Socket Only),Operational,2,32,230,7,AC (Single-Phase),,187868,,3,0,,1,Huntingdon,Peterborough,Huntingdon,,PE29 3AR,52.327498,0.183631
303187,Type 2 (Socket Only),Operational,2,32,230,7,AC (Single-Phase),,187868,,3,0,,1,Huntingdon,Peterborough,Huntingdon,,PE29 3AR,52.327498,0.183631
126237,Type 2 (Socket Only),Operational,2,32,400,22,AC (Three-Phase),1,88953,Free,3,50,1,6,Brownings Garage LTD,London,71 Great Percy Street,,WC1X 9QX,51.530069,-0.111071
26074,Type 2 (Socket Only),Operational,2,16,,3,AC (Single-Phase),2,24069,Free,,50,2,4,Leigh Infirmary,Wigan,Leigh Infirmary,Greater Manchester,WN7 1HS,53.503164,-2.512243
58614,Type 2 (Socket Only),Operational,2,32,230,7,AC (Single-Phase),2,47547,Free,3,50,2,6,Beacon Innovation Centre,Norwich,"Camelot Road, Beacon Park",Norfolk,NR31 7RA,52.5558313,1.7129255
63330,BS1363 3 Pin 13 Amp,Not Operational,2,32,230,3,AC (Single-Phase),1,51169,Free,3315,100,1,4,Tweed Mill,Galashiels,King Street,Scottish Borders,TD1 1PX,55.6234085,-2.8231385
153913,Tesla (Model S/X),Operational,2,,,13,AC (Three-Phase),1,108798,,23,50,1,4,Glencoe House,Perth,Glencoe House,,PH49 4HT,56.687745,-5.099769
134900,Tesla (Model S/X),Operational,2,32,230,7,AC (Single-Phase),2,95232,,23,50,2,4,The Crown Inn,Hemel Hempstead,16 Market Square,Buckinghamshire,HP7 0DH,51.666293,-0.616727
185827,Type 2 (Socket Only),Operational,2,32,230,7,AC (Single-Phase),4,132723,"1,Free",3,50,4,4,Tesco Superstore-Keynsham,Bristol,Bristol Road,Bristol,BS31 2BA,51.416674,-2.501015
15005,Type 2 (Socket Only),Operational,2,32,230,7,AC (Single-Phase),2,16548,Inclusive; for Polar Plus subscription members only. Parking fees apply.,32,50,2,4,Hereford Leisure Pool,Hereford,St Martin's Avenue,Herefordshire,HR2 7RQ,52.0507001,-2.7179553
58039,Type 2 (Socket Only),Operational,2,32,230,7,AC (Single-Phase),2,47117,Inclusive; for Polar Plus subscription members only,32,50,2,4,ASDA Oldbury,Birmingham,Wolverhampton Road,West Midlands,B69 4PU,52.489899,-2.01839
58040,BS1363 3 Pin 13 Amp,Operational,2,13,230,3,AC (Single-Phase),2,47117,Inclusive; for Polar Plus subscription members only,32,50,2,4,ASDA Oldbury,Birmingham,Wolverhampton Road,West Midlands,B69 4PU,52.489899,-2.01839
256733,CHAdeMO,Operational,3,,,50,DC,1,168863,£0.35/kWh,150,50,2,4,Morrisons Seaford,Brighton,Dane Road,England,BN25 1DL,50.7715865,0.099275039
256734,CCS (Type 2),Operational,3,,,50,DC,1,168863,£0.35/kWh,150,50,2,4,Morrisons Seaford,Brighton,Dane Road,England,BN25 1DL,50.7715865,0.099275039
256735,Type 2 (Socket Only),Operational,2,,,22,AC (Three-Phase),1,168863,£0.35/kWh,150,50,2,4,Morrisons Seaford,Brighton,Dane Road,England,BN25 1DL,50.7715865,0.099275039
160063,Type 2 (Tethered Connector),Operational,3,,,43,AC (Three-Phase),1,113584,£1.00 + £0.30/kWh,150,50,1,4,MFG Esso Clocktower,Dartford,139 Milton Road,,DA12 2RG,51.441262,0.374421
160064,CHAdeMO,Operational,3,,,50,DC,1,113584,£1.00 + £0.30/kWh,150,50,1,4,MFG Esso Clocktower,Dartford,139 Milton Road,,DA12 2RG,51.441262,0.374421
160065,CCS (Type 2),Operational,3,,,50,DC,1,113584,£1.00 + £0.30/kWh,150,50,1,4,MFG Esso Clocktower,Dartford,139 Milton Road,,DA12 2RG,51.441262,0.374421
160818,CCS (Type 2),Operational,3,,,50,DC,1,114241,£0.36/kWh,203,50,1,5,The King's Highway,Derby,Rowditch Place,,DE22 3NH,52.919432,-1.507458
160819,CHAdeMO,Operational,3,,,50,DC,1,114241,£0.36/kWh,203,50,1,5,The King's Highway,Derby,Rowditch Place,,DE22 3NH,52.919432,-1.507458
160820,Type 2 (Tethered Connector),Operational,3,63,400,43,AC (Three-Phase),1,114241,£0.36/kWh,203,50,1,5,The King's Highway,Derby,Rowditch Place,,DE22 3NH,52.919432,-1.507458
19645,Type 2 (Socket Only),Operational,2,32,230,7,AC (Single-Phase),2,19347,Inclusive; for Polar Plus subscription members only,32,50,2,4,Westpole Avenue,Enfield,Westpole Avenue,London,EN4 0AS,51.65014154,-0.148023943
143549,Type 2 (Socket Only),Partly Operational (Mixed),2,32,230,7,AC (Single-Phase),6,101690,Â£0.50 + Â£0.14/kWh,150,50,6,4,Car Park D Ford Dunton Technical Centre,Southend-on-Sea,Ford Dunton Technical Centre,Essex,SS15 6EE,51.583854,0.404664
302810,Type 2 (Tethered Connector),Operational,3,125,400,50,DC,,187612,,3392,0,,5,Ewell By Pass,Kingston upon Thames,Ewell By Pass,,KT17 2PU,51.354308,-0.246872
302811,CHAdeMO,Operational,3,125,400,50,DC,,187612,,3392,0,,5,Ewell By Pass,Kingston upon Thames,Ewell By Pass,,KT17 2PU,51.354308,-0.246872
142581,CHAdeMO,Operational,3,125,400,50,DC,2,100982,£0.25/kWh,3296,50,2,5,Glendale Service Station,Coventry,Croft Road,,CV10 7DP,52.517462,-1.490319
142590,CCS (Type 2),Operational,3,125,400,50,DC,2,100982,£0.25/kWh,3296,50,2,5,Glendale Service Station,Coventry,Croft Road,,CV10 7DP,52.517462,-1.490319
264784,Type 2 (Socket Only),Operational,2,32,400,22,AC (Three-Phase),2,173055,"Free,£0.27/kWh",3,50,2,4,Tesco Superstore-Fareham,Portsmouth,Quay Street,,PO16 0LE,50.850639,-1.17587
270091,Type 2 (Socket Only),Operational,2,32,230,7,AC (Single-Phase),2,173055,"Free,£0.27/kWh",3,50,2,4,Tesco Superstore-Fareham,Portsmouth,Quay Street,,PO16 0LE,50.850639,-1.17587
190446,Type 2 (Socket Only),Operational,2,16,230,3.7,AC (Single-Phase),,136019,,2244,0,,5,Bowling Green Street,London,Bowling Green Street,,SE11 5BU,51.483913,-0.113143
252876,CHAdeMO,Operational,3,125,400,50,DC,1,167016,"ESB: Membership is £4 per month, 25p per kWh. Requires EV Plug In app. Contactless available",1,50,,5,Carlisle Lane Parking/Charging,London,"195 Carlisle Lane, Lambeth",,SE17LH,51.497106,-0.115396
252877,CCS (Type 2),Operational,3,125,400,50,DC,1,167016,"ESB: Membership is £4 per month, 25p per kWh. Requires EV Plug In app. Contactless available",1,50,,5,Carlisle Lane Parking/Charging,London,"195 Carlisle Lane, Lambeth",,SE17LH,51.497106,-0.115396
252878,Type 2 (Tethered Connector),Operational,3,63,400,43,AC (Three-Phase),1,167016,"ESB: Membership is £4 per month, 25p per kWh. Requires EV Plug In app. Contactless available",1,50,,5,Carlisle Lane Parking/Charging,London,"195 Carlisle Lane, Lambeth",,SE17LH,51.497106,-0.115396
178195,Type 2 (Socket Only),Operational,2,32,230,7,AC (Single-Phase),3,127258,£0.18/kWh,3,50,3,4,Ucs Sports Pavillion (overflow Car Park),London,Ranulf Road,London,NW2 2BS,51.557817,-0.202935
202652,Type 2 (Socket Only),Operational,2,16,230,3.7,AC (Single-Phase),1,145864,,2244,0,,5,Henderson Road,Portsmouth,Henderson Road,,PO4 9XX,50.787324,-1.053443
205256,Type 2 (Socket Only),Operational,2,32,230,7,AC (Single-Phase),2,147859,£0.18/kWh,3,50,3,4,Bellingham Town Hall,Newcastle upon Tyne,Manchester Square,Northumberland,NE48 2DS,55.14345507,-2.25538291
266430,Type 2 (Socket Only),Operational,2,16,230,3.7,AC (Single-Phase),,173405,,2244,0,,1,11 Harmood Street,London,11 Harmood Street,,NW1 8DN,51.543438,-0.147515
131970,Type 2 (Socket Only),Operational,2,32,230,6.9,AC (Single-Phase),1,93165,£0.108/kWh; for Polar Plus subscription members only,32,50,1,4,The Broadway Hotel,Worcester,The Broadway Hotel,Broadway,WR12 7AA,52.03532,-1.862697
188199,Type 2 (Socket Only),Operational,2,32,230,7,AC (Single-Phase),2,134474,£1.00/charge admin fee,20,50,2,4,"Bradbourne Car Park, Sevenoaks",Tunbridge Wells,"Bradbourne Car Park, Sevenoaks",,TN13 3YD,51.27901,0.18191
190898,Type 2 (Socket Only),Operational,2,16,230,3.7,AC (Single-Phase),,136449,,2244,0,,4,Meynell Road,London,Meynell Road,,E9 7AP,51.542297,-0.044385
137894,CHAdeMO,Operational,3,,,50,DC,2,97126,Free,3315,50,2,4,"Dyce (Craibstone) Park & Ride, Craibstone",Aberdeen,"Dyce (Craibstone) Park & Ride, Craibstone",,AB21 9TT,57.19269512,-2.213364984
137895,Type 2 (Tethered Connector),Operational,3,63,400,43,AC (Three-Phase),2,97126,Free,3315,50,2,4,"Dyce (Craibstone) Park & Ride, Craibstone",Aberdeen,"Dyce (Craibstone) Park & Ride, Craibstone",,AB21 9TT,57.19269512,-2.213364984
137896,CCS (Type 2),Operational,3,,,50,DC,2,97126,Free,3315,50,2,4,"Dyce (Craibstone) Park & Ride, Craibstone",Aberdeen,"Dyce (Craibstone) Park & Ride, Craibstone",,AB21 9TT,57.19269512,-2.213364984
159644,Type 2 (Tethered Connector),Operational,3,,,43,AC (Three-Phase),1,113357,£1.00 + £0.30/kWh,150,50,1,4,Morrisons Hillhouse,Bradford,Gain Lane,,BD3 7DL,53.806724,-1.714936
159645,CHAdeMO,Operational,3,,,50,DC,1,113357,£1.00 + £0.30/kWh,150,50,1,4,Morrisons Hillhouse,Bradford,Gain Lane,,BD3 7DL,53.806724,-1.714936
159646,CCS (Type 2),Operational,3,,,50,DC,1,113357,£1.00 + £0.30/kWh,150,50,1,4,Morrisons Hillhouse,Bradford,Gain Lane,,BD3 7DL,53.806724,-1.714936
116244,Tesla (Model S/X),Operational,2,32,400,22,AC (Three-Phase),2,81508,Free,23,50,2,6,The Carlyon Bay Hotel,Plymouth,Sea Road,Cornwall,PL25 3RD,50.337394,-4.739296
68599,Type 2 (Socket Only),Operational,2,32,400,22,AC (Three-Phase),2,54412,Inclusive; for Polar Plus subscription members only,32,50,2,6,Smiths of Peterborough Renault,Peterborough,Sturrock Way,,PE3 8YL,52.598701,-0.270832
260643,Type 2 (Socket Only),Operational,2,32,230,7,AC (Single-Phase),2,170679,Free,3,50,2,4,Sainsbury's North Cheam,Sutton,566 London Road,,SM3 9AA,51.372056,-0.223934
121971,Type 2 (Socket Only),Operational,2,32,400,22,AC (Three-Phase),2,85818,£0.25/kWh,3,50,2,4,Lidl-Holmfirth,Huddersfield ,Riverholme Works,,HD9 3TN,53.575448,-1.784534
205899,Type 2 (Socket Only),Operational,2,32,230,7,AC (Single-Phase),2,148305,"£1.00/hour for 2 hours,then £5.00/hour",3,50,2,4,Premier Autocentres LTD,Dartford,184-214 Blackfen Road,Kent,DA15 8PT,51.451109,0.099305
190043,Type 2 (Socket Only),Operational,2,16,230,3.7,AC (Single-Phase),,135635,,2244,0,,4,Mandrake Road,London,Mandrake Road,,SW17 7PT,51.436401,-0.16419
188855,Type 2 (Socket Only),Operational,2,16,230,3.7,AC (Single-Phase),,134927,,3345,0,,5,Piermont Road,London,Piermont Road,,SE220LN ,51.454748,-0.064721
14667,Type 2 (Socket Only),Operational,2,32,230,7,AC (Single-Phase),1,16231,,19,50,2,1,Higher Kingcombe Lodge,Dorchester,Higher Kingcombe Farm,Dorset,DT2 0EH,50.7757572,-2.6193718
14668,BS1363 3 Pin 13 Amp,Operational,2,13,230,3,AC (Single-Phase),1,16231,,19,50,2,1,Higher Kingcombe Lodge,Dorchester,Higher Kingcombe Farm,Dorset,DT2 0EH,50.7757572,-2.6193718
23002,CHAdeMO,Operational,3,200,500,100,DC,1,21142,£0.30/kWh,24,50,2,5,Northampton Roadchef M1 (N) Services,Northampton,M1 Junction 15A,Northamptonshire,NN4 9QY,52.209079,-0.943969
23003,CCS (Type 2),Operational,3,200,920,120,DC,1,21142,£0.30/kWh,24,50,2,5,Northampton Roadchef M1 (N) Services,Northampton,M1 Junction 15A,Northamptonshire,NN4 9QY,52.209079,-0.943969
65838,Type 2 (Socket Only),Operational,2,32,240,7,AC (Single-Phase),2,52895,Inclusive; for Polar Plus subscription members only,32,50,2,7,Currie Motors Toyota Twickenham,Twickenham,161 Chertsey Road,,TW1 1ER,51.45460549,-0.337557684
309003,CHAdeMO,Operational,3,125,400,50,DC,1,190587,£0.40/kWh,203,50,1,5,Haywain Pub & Restaurant,Gloucester,Bristol Road,England,GL2 2SN,51.82668916,-2.277396287
309004,CCS (Type 2),Operational,3,125,400,50,DC,1,190587,£0.40/kWh,203,50,1,5,Haywain Pub & Restaurant,Gloucester,Bristol Road,England,GL2 2SN,51.82668916,-2.277396287
309005,Type 2 (Socket Only),Operational,2,32,400,22,AC (Three-Phase),1,190587,£0.40/kWh,203,50,1,5,Haywain Pub & Restaurant,Gloucester,Bristol Road,England,GL2 2SN,51.82668916,-2.277396287
50697,Type 2 (Socket Only),Operational,2,32,230,7,AC (Single-Phase),1,42196,,19,50,1,1,Cambridge Hotel ,Huddersfield ,4 Clare Hill ,West Yorkshire ,HD1 5BS,53.652503,-1.785925
227474,Type 2 (Socket Only),Operational,2,16,400,11,AC (Three-Phase),,157859,,,0,,1,Northern Perimeter Road (Heathrow),Twickenham,Northern Perimeter Road (Heathrow),,TW6 2EQ,51.480164,-0.450935
189501,Type 2 (Tethered Connector),Operational,3,63,400,43,AC (Three-Phase),,135265,"£1.00 + £0.30 / kWh. £10.00 overstay fee after 95 mins, then £10.00 every subsequent 95 mins",150,50,1,4,Morrisons Bolsover,Sheffield, Oxcroft Lane,Derbyshire,S44 6NF,53.231076,-1.289847
189502,CHAdeMO,Operational,3,125,400,50,DC,,135265,"£1.00 + £0.30 / kWh. £10.00 overstay fee after 95 mins, then £10.00 every subsequent 95 mins",150,50,1,4,Morrisons Bolsover,Sheffield, Oxcroft Lane,Derbyshire,S44 6NF,53.231076,-1.289847
189503,CCS (Type 2),Operational,3,125,400,50,DC,,135265,"£1.00 + £0.30 / kWh. £10.00 overstay fee after 95 mins, then £10.00 every subsequent 95 mins",150,50,1,4,Morrisons Bolsover,Sheffield, Oxcroft Lane,Derbyshire,S44 6NF,53.231076,-1.289847
190190,Type 2 (Socket Only),Operational,2,16,230,3.7,AC (Single-Phase),,135770,,2244,0,,5,Lyham Road,London,Lyham Road,,SW2 5DH,51.456301,-0.128025
103298,Type 2 (Socket Only),Operational,2,32,230,7,AC (Single-Phase),2,72035,Free,3,50,2,6,Volvo-Brindley Wolverhampton,Wolverhampton,141 Wolverhampton Road,,WV8 1HF,52.597737,-2.129778
98879,CHAdeMO,Operational,3,125,400,50,DC,1,70008,Free,7,50,1,6,Arbury Nissan,Coventry,Apollo Way,Warwickshire,CV34 6RH,52.27687685,-1.545755581
305,Blue Commando (2P+E),Operational,2,32,230,7,AC (Single-Phase),1,5160,Inside a pay parking facility. You must pay the parking charges (£3 for first 3 hours;  then £1.50 for every hour or part hour). No separate fee for charging but the CPS ones will require a RFID card.,19,50,4,1,Our Dynamic Earth,Edinburgh,112-116 Holyrood Rd,Midlothian,EH8 8AS,55.95065658,-3.175714016
3971,BS1363 3 Pin 13 Amp,Operational,2,13,230,3,AC (Single-Phase),1,5160,Inside a pay parking facility. You must pay the parking charges (£3 for first 3 hours;  then £1.50 for every hour or part hour). No separate fee for charging but the CPS ones will require a RFID card.,19,50,4,1,Our Dynamic Earth,Edinburgh,112-116 Holyrood Rd,Midlothian,EH8 8AS,55.95065658,-3.175714016
6776,Type 2 (Socket Only),Operational,2,32,230,7,AC (Single-Phase),2,5160,Inside a pay parking facility. You must pay the parking charges (£3 for first 3 hours;  then £1.50 for every hour or part hour). No separate fee for charging but the CPS ones will require a RFID card.,19,50,4,1,Our Dynamic Earth,Edinburgh,112-116 Holyrood Rd,Midlothian,EH8 8AS,55.95065658,-3.175714016
60029,Type 2 (Socket Only),Not Operational,2,32,400,22,AC (Three-Phase),2,48574,Free. Parking fees apply.,93,100,2,4,Hill Street Newry on-street,Belfast,"Hill Street, On Street Parking",,BT34 1AR,54.175246,-6.338146
312887,CCS (Type 2),Operational,3,150,1000,120,DC,2,192555,£0.50/kWh,3296,50,2,5,McDonald's Melksham,Swindon,GEC Industrial Estate,England,SN12 8RP,51.38167755,-2.143458751
312888,CHAdeMO,Operational,3,150,1000,75,DC,2,192555,£0.50/kWh,3296,50,2,5,McDonald's Melksham,Swindon,GEC Industrial Estate,England,SN12 8RP,51.38167755,-2.143458751
26273,Type 2 (Socket Only),Operational,2,32,230,7,AC (Single-Phase),1,24205,,19,50,2,1,Peterstone Court Hotel,Llandrindod Wells,Llanhamlach,Wales,LD3 7YB,51.928518,-3.325382
26274,BS1363 3 Pin 13 Amp,Operational,2,13,230,3,AC (Single-Phase),1,24205,,19,50,2,1,Peterstone Court Hotel,Llandrindod Wells,Llanhamlach,Wales,LD3 7YB,51.928518,-3.325382
217535,CHAdeMO,Operational,3,125,400,50,DC,,154633,,8,0,,4,West Bridgford,Nottingham,West Bridgford,,NG2 7QP,52.93628,-1.135
217536,Type 2 (Tethered Connector),Operational,3,63,400,43,AC (Three-Phase),,154633,,8,0,,4,West Bridgford,Nottingham,West Bridgford,,NG2 7QP,52.93628,-1.135
217537,Type 2 (Tethered Connector),Operational,3,125,400,50,DC,,154633,,8,0,,4,West Bridgford,Nottingham,West Bridgford,,NG2 7QP,52.93628,-1.135
112195,Type 2 (Socket Only),Operational,2,32,230,7,AC (Single-Phase),2,77667,,8,50,2,6,LFB Barnet Fire Station,Enfield,Station Road,England,EN5 1PX,51.6473007,-0.186460417
151267,Type 2 (Socket Only),Operational,2,32,230,7,AC (Single-Phase),2,107251,£0.059/minute; min £1.18; other tariffs available,25,50,2,4,Wood Lane,London,Wood Lane,England,NW9 8DU,51.5738775,-0.2615722
151268,Type 1 (J1772),Operational,2,16,230,4,AC (Single-Phase),2,107251,£0.059/minute; min £1.18; other tariffs available,25,50,2,4,Wood Lane,London,Wood Lane,England,NW9 8DU,51.5738775,-0.2615722
165497,CCS (Type 2),Operational,3,,,50,DC,1,116913,£0.108/kWh; for Polar Plus subscription members only,32,50,2,4,Best Western Salford Hall Hotel,Worcester,Best Western Salford Hall Hotel,Evesham,WR11 8UT,52.148701,-1.9028
165498,CHAdeMO,Operational,3,,,50,DC,1,116913,£0.108/kWh; for Polar Plus subscription members only,32,50,2,4,Best Western Salford Hall Hotel,Worcester,Best Western Salford Hall Hotel,Evesham,WR11 8UT,52.148701,-1.9028
165499,Type 2 (Tethered Connector),Operational,3,,,43,AC (Three-Phase),1,116913,£0.108/kWh; for Polar Plus subscription members only,32,50,2,4,Best Western Salford Hall Hotel,Worcester,Best Western Salford Hall Hotel,Evesham,WR11 8UT,52.148701,-1.9028
24462,Type 2 (Socket Only),Operational,2,32,230,7,AC (Single-Phase),2,22781,Free. Parking Fees apply,45,50,2,1,Saint Peters Car Park - Augusta Place.,Coventry,Augusta Place.,Warwickshire,CV32 5EL,52.28878854,-1.536830664
149302,CHAdeMO,Operational,3,125,500,50,DC,1,106010,£0.29/kWh,3357,50,1,5,Stamford Hill,London,88 Stamford Hill,England,N16 5AY,51.567247,-0.072898
149303,CCS (Type 2),Operational,3,125,500,50,DC,1,106010,£0.29/kWh,3357,50,1,5,Stamford Hill,London,88 Stamford Hill,England,N16 5AY,51.567247,-0.072898
149304,Type 2 (Tethered Connector),Operational,3,63,400,43,AC (Three-Phase),1,106010,£0.29/kWh,3357,50,1,5,Stamford Hill,London,88 Stamford Hill,England,N16 5AY,51.567247,-0.072898
302999,Type 2 (Socket Only),Operational,2,16,230,3.7,AC (Single-Phase),,187757,,2244,0,,5,1A Tresham Cres,London,1A Tresham Cres,,NW8 8TN,51.526536,-0.166144
612,BS1363 3 Pin 13 Amp,,2,,,,,1,5863,,1,50,1,2,Wakefield Council Depot,Wakefeild,Bradford Road,West Yorkshire,WF1 2HQ,53.69291986,-1.509658001
65229,Type 2 (Socket Only),Operational,2,32,400,22,AC (Three-Phase),2,52529,,3496,50,2,5,Oriel y Parc National Park visitors centre,Swansea,Ffordd Caerfai,Pembrokeshire,SA62 6QT,51.88034571,-5.259672403
188296,CHAdeMO,Operational,3,,,50,DC,2,134531,£0.29/kWh,3357,50,2,4,Lockhurst Lane,Coventry,Lockhurst Lane,West Midlands Combined Authority,CV6 5NY,52.42903105,-1.502952022
188297,CCS (Type 2),Operational,3,,,50,DC,2,134531,£0.29/kWh,3357,50,2,4,Lockhurst Lane,Coventry,Lockhurst Lane,West Midlands Combined Authority,CV6 5NY,52.42903105,-1.502952022
188298,Type 2 (Tethered Connector),Operational,3,63,400,43,AC (Three-Phase),2,134531,£0.29/kWh,3357,50,2,4,Lockhurst Lane,Coventry,Lockhurst Lane,West Midlands Combined Authority,CV6 5NY,52.42903105,-1.502952022
183156,Type 2 (Socket Only),Operational,2,32,230,7,AC (Single-Phase),2,130821,Free,3,50,2,4,Hamilton Road,Glasgow,Hamilton Road,South Lanarkshire,G72 9BF,55.78442309,-4.11799823
22437,Type 2 (Socket Only),Operational,2,32,230,7,AC (Single-Phase),1,20616,,19,50,1,1,"Macdonald Windsor Hotel, Windsor",Slough,23 High Street,Berkshire,SL4 1LH,51.48221,-0.607762
266603,Type 2 (Socket Only),Operational,2,16,230,3.7,AC (Single-Phase),,173540,,2244,0,,5,19 Paddington Green,London,19 Paddington Green,,W2 1LG,51.520825,-0.174593
76588,Type 2 (Socket Only),Operational,2,32,230,7,AC (Single-Phase),1,60458,Free,3,50,2,6,Northcote Manor Hotel,Blackburn,Northcote Road,Lancashire,BB6 8BE,53.811407,-2.448278
147344,CCS (Type 2),Operational,3,,,50,DC,1,104353,£0.108/kWh; for Polar Plus subscription members only,32,50,1,4,Holiday Inn Doncaster,Doncaster,High Road,,DN4 9UX,53.499649,-1.17654
147345,CHAdeMO,Operational,3,,,50,DC,1,104353,£0.108/kWh; for Polar Plus subscription members only,32,50,1,4,Holiday Inn Doncaster,Doncaster,High Road,,DN4 9UX,53.499649,-1.17654
147346,Type 2 (Tethered Connector),Operational,3,,,43,AC (Three-Phase),1,104353,£0.108/kWh; for Polar Plus subscription members only,32,50,1,4,Holiday Inn Doncaster,Doncaster,High Road,,DN4 9UX,53.499649,-1.17654
302563,Type 2 (Socket Only),Operational,2,16,230,3.7,AC (Single-Phase),,187429,,2244,0,,5,45 Lammas Road,Twickenham,45 Lammas Road,,TW10 7YB,51.4309,-0.31534
253506,Type 2 (Socket Only),Operational,2,16,230,3.7,AC (Single-Phase),,167387,,3345,0,,5,SE155NZ,London,,,SE155NZ,51.471484,-0.077398
190658,Type 2 (Socket Only),Operational,2,16,230,3.7,AC (Single-Phase),,136222,,2244,0,,5,Phillimore Gardens,London,Phillimore Gardens,,W8 7QG,51.501928,-0.199713
59082,Type 2 (Socket Only),Operational,2,32,240,7,AC (Single-Phase),4,47906,£0.108/kWh; for Polar Plus subscription members only,32,50,4,4,Kempton Park Race Course,Twickenham,Staines Road East,Surrey,TW16 5AQ,51.418503,-0.408629
227247,CHAdeMO,Operational,3,125,400,50,DC,1,157731,,8,50,,4,Merchants Manor Gym & Swim,Truro,1 Western Terrace,,TR11 4QN,50.1483,-5.0741
227248,CCS (Type 2),Operational,3,125,400,50,DC,1,157731,,8,50,,4,Merchants Manor Gym & Swim,Truro,1 Western Terrace,,TR11 4QN,50.1483,-5.0741
262888,Type 2 (Tethered Connector),Operational,3,,,43,AC (Three-Phase),1,157731,,8,50,,4,Merchants Manor Gym & Swim,Truro,1 Western Terrace,,TR11 4QN,50.1483,-5.0741
267146,CCS (Type 2),Operational,3,,,150,DC,2,173794,£0.47/kWh; other tariffs available,32,50,2,5,BP Astwick filling station,Stevenage,A1 London Road,Central Bedfordshire,SG5 4BL,52.02842744,-0.215358376
267147,CHAdeMO,Operational,3,,,100,DC,2,173794,£0.47/kWh; other tariffs available,32,50,2,5,BP Astwick filling station,Stevenage,A1 London Road,Central Bedfordshire,SG5 4BL,52.02842744,-0.215358376
190832,Type 2 (Socket Only),Operational,2,16,230,3.7,AC (Single-Phase),,136388,,2244,0,,5,34 Sixth Avenue,London,34 Sixth Avenue,,W10 4HB,51.528692,-0.213247
179753,BS1363 3 Pin 13 Amp,Operational,2,13,230,3,AC (Single-Phase),10,128396,£0.108/kWh; for Polar Plus subscription members only,32,50,10,4,Q-Park Chinatown,London,20 Newport Place,London,WC2H 7PR,51.512299,-0.129615
179812,Type 2 (Socket Only),Operational,2,32,230,7,AC (Single-Phase),2,128396,£0.108/kWh; for Polar Plus subscription members only,32,50,10,4,Q-Park Chinatown,London,20 Newport Place,London,WC2H 7PR,51.512299,-0.129615
179813,Type 2 (Tethered Connector),Operational,3,,,43,AC (Three-Phase),2,128396,£0.108/kWh; for Polar Plus subscription members only,32,50,10,4,Q-Park Chinatown,London,20 Newport Place,London,WC2H 7PR,51.512299,-0.129615
179814,CCS (Type 2),Operational,3,,,50,DC,2,128396,£0.108/kWh; for Polar Plus subscription members only,32,50,10,4,Q-Park Chinatown,London,20 Newport Place,London,WC2H 7PR,51.512299,-0.129615
179815,CHAdeMO,Operational,3,,,50,AC (Three-Phase),2,128396,£0.108/kWh; for Polar Plus subscription members only,32,50,10,4,Q-Park Chinatown,London,20 Newport Place,London,WC2H 7PR,51.512299,-0.129615
206915,Type 2 (Socket Only),Unknown,2,32,230,7,AC (Single-Phase),11,148997,Free,20,50,11,4,Trafford Centre Parking Garage East,Manchester,Trafford Centre Parking Garage,,M17 8AA,53.46534,-2.34518
114741,Type 2 (Socket Only),Operational,2,32,230,7,AC (Single-Phase),1,80088,1,3,0,1,6,Investec-Gresham Street,London,30 Gresham Street,,EC2V 7QN,51.516701,-0.095897
121923,Type 2 (Socket Only),Operational,2,32,230,7,AC (Single-Phase),2,85770,Free,3,50,2,6,JJS Manufacturing,Leicester,Wycliffe Industrial Park,,LE17 4HG,52.460812,-1.197855
178604,Tesla (Model S/X),Operational,2,,,7,AC (Three-Phase),2,127599,,23,50,2,4,Voco St David's Hotel,Cardiff,Voco St David's Hotel,,CF10 5SD,51.460517,-3.167412
227940,CHAdeMO,Operational,3,125,400,50,DC,,158094,,32,0,,1,Kay Street,Blackburn,Kay Street,England,,53.701855,-2.284547
227941,CCS (Type 2),Operational,3,125,400,50,DC,,158094,,32,0,,1,Kay Street,Blackburn,Kay Street,England,,53.701855,-2.284547
257725,Type 2 (Socket Only),Operational,2,32,230,7,AC (Single-Phase),4,169399,Free,3,50,4,4,Tesco Extra-Corby Oakley Road,Northampton,Oakley Road,,NN18 8AL,52.485409,-0.686899
176904,Type 2 (Socket Only),Operational,2,32,230,7,AC (Single-Phase),2,126222,£1.00/hour,3,50,2,4,Seaview Holiday Village,Plymouth,Polperro,Cornwall,PL13 2JE,50.344824,-4.510346
143777,Type 2 (Socket Only),Operational,2,32,230,7,AC (Single-Phase),2,101852,£0.30/kWh,3,50,2,4,Q.N Hotels-Holiday Inn-Ashford,Tunbridge Wells,Maidstone Road,,TN26 1AR,51.187983,0.812789
271114,Type 2 (Socket Only),Planned For Future Date,2,32,230,7,AC (Single-Phase),4,174952,,3,150,4,1,Friern Bridge Retail Park,London,Pegasus Way,England,N11 3PW,51.61097794,-0.144243244
271115,CCS (Type 2),Planned For Future Date,3,,,50,DC,1,174952,,3,150,4,1,Friern Bridge Retail Park,London,Pegasus Way,England,N11 3PW,51.61097794,-0.144243244
271116,CHAdeMO,Planned For Future Date,3,,,50,DC,1,174952,,3,150,4,1,Friern Bridge Retail Park,London,Pegasus Way,England,N11 3PW,51.61097794,-0.144243244
19537,BS1363 3 Pin 13 Amp,Operational,2,32,230,3,AC (Single-Phase),1,19255,Free,20,50,1,1,Bill Quay Farm,Newcastle upon Tyne,Bill Quay Farm,,NE10 0TE,54.9578777,-1.5425248
191898,CCS (Type 2),Unknown,3,60,400,22,DC,,137063,,3315,0,,1,Golspie Business Park,Kirkwall,Golspie Business Park,Highland,KW10 6UB,57.97047426,-3.990082001
191899,CHAdeMO,Unknown,3,60,400,22,DC,,137063,,3315,0,,1,Golspie Business Park,Kirkwall,Golspie Business Park,Highland,KW10 6UB,57.97047426,-3.990082001
191900,Type 2 (Socket Only),Unknown,2,32,400,22,AC (Three-Phase),,137063,,3315,0,,1,Golspie Business Park,Kirkwall,Golspie Business Park,Highland,KW10 6UB,57.97047426,-3.990082001
91672,Type 2 (Socket Only),Operational,2,32,230,7,AC (Single-Phase),1,66308,Free,3,50,2,6,Belmont Kia and Mitsubishi,Edinburgh,Bankhead Drive,Scotland,EH11 4DJ,55.927638,-3.300339
257455,CCS (Type 2),Operational,3,,,50,DC,1,169233,,32,50,1,5,32-22 Parkhurst Road,London,,England,N7 0SF,51.55454408,-0.122774279
257456,CHAdeMO,Operational,3,,,50,DC,1,169233,,32,50,1,5,32-22 Parkhurst Road,London,,England,N7 0SF,51.55454408,-0.122774279
257457,Type 2 (Tethered Connector),Operational,3,,,43,AC (Three-Phase),1,169233,,32,50,1,5,32-22 Parkhurst Road,London,,England,N7 0SF,51.55454408,-0.122774279
66098,BS1363 3 Pin 13 Amp,Operational,2,13,230,3,AC (Single-Phase),1,53046,Free,25,50,2,4,195 Kilburn Park Road,London,195 Kilburn Park Road,England,NW6 5LG,51.528873,-0.195525
66099,Type 2 (Socket Only),Operational,2,32,230,7,AC (Single-Phase),1,53046,Free,25,50,2,4,195 Kilburn Park Road,London,195 Kilburn Park Road,England,NW6 5LG,51.528873,-0.195525
303343,Type 2 (Socket Only),Operational,2,32,400,22,AC (Three-Phase),,187995,,150,0,,5,"Springhill, Wellington",Telford,"Springhill, Wellington",,TF1 1RP,52.702351,-2.522811
303344,CHAdeMO,Operational,3,125,400,50,DC,,187995,,150,0,,5,"Springhill, Wellington",Telford,"Springhill, Wellington",,TF1 1RP,52.702351,-2.522811
303345,Type 2 (Tethered Connector),Operational,3,125,400,50,DC,,187995,,150,0,,5,"Springhill, Wellington",Telford,"Springhill, Wellington",,TF1 1RP,52.702351,-2.522811
258535,CCS (Type 2),Operational,3,,,50,DC,1,169726,"Rapids Polar Card 15p/kWh, Contactless 20p/kWh",32,50,1,5,Miller & Carter Grimsby,Doncaster,Weelsby Road,England,DN32 9RT,53.55382628,-0.074041864
258536,CHAdeMO,Operational,3,,,50,DC,1,169726,"Rapids Polar Card 15p/kWh, Contactless 20p/kWh",32,50,1,5,Miller & Carter Grimsby,Doncaster,Weelsby Road,England,DN32 9RT,53.55382628,-0.074041864
258537,Type 2 (Tethered Connector),Operational,3,,,43,AC (Three-Phase),1,169726,"Rapids Polar Card 15p/kWh, Contactless 20p/kWh",32,50,1,5,Miller & Carter Grimsby,Doncaster,Weelsby Road,England,DN32 9RT,53.55382628,-0.074041864
19595,BS1363 3 Pin 13 Amp,Operational,2,13,230,3,,1,19310,Free,45,50,4,1,Nottingham University Jubillee Campus ATC 1,Nottingham,The University of Nottingham,,NG8 1BB,52.95244851,-1.182644963
19596,Type 2 (Socket Only),Operational,2,32,230,7,,1,19310,Free,45,50,4,1,Nottingham University Jubillee Campus ATC 1,Nottingham,The University of Nottingham,,NG8 1BB,52.95244851,-1.182644963
108224,Type 2 (Socket Only),Operational,2,32,230,7,AC (Single-Phase),2,75031,£1.20/hour,3,50,2,4,Halfords-Derby,Derby,Mayvale Grove,Derby,DE22 3FA,52.920082,-1.505231
185932,Type 2 (Socket Only),Operational,2,32,400,22,AC (Three-Phase),1,132774,£0.073/minute; min £1.38; other tariffs available,25,50,1,4,Lancaster Gate,London,14 Lancaster Gate,,W2 3LH,51.511847,-0.178415
257699,Type 2 (Socket Only),Operational,2,32,230,7,AC (Single-Phase),4,169376,Free,3,50,4,4,Tesco Superstore-Bognor Regis,Portsmouth,Shripney Road,,PO22 9ND,50.797229,-0.669354
122321,Type 2 (Socket Only),Operational,2,32,230,7,AC (Single-Phase),2,86019,£0.108/kWh; for Polar Plus subscription members only,32,50,2,4,Melton Mowbray Council,Leicester,Mucky Lane,Leicestershire,LE13 1GH,52.762779,-0.885709
166985,CCS (Type 2),Operational,3,,,50,DC,1,117969,Free,3315,50,6,4,Crichton Trust,Dumfries,Grierson House,,DG1 4ZE,55.048152,-3.593376
166986,CHAdeMO,Operational,3,,,50,DC,1,117969,Free,3315,50,6,4,Crichton Trust,Dumfries,Grierson House,,DG1 4ZE,55.048152,-3.593376
166987,Type 2 (Tethered Connector),Operational,3,,,43,AC (Three-Phase),1,117969,Free,3315,50,6,4,Crichton Trust,Dumfries,Grierson House,,DG1 4ZE,55.048152,-3.593376
166988,Type 2 (Socket Only),Operational,2,32,400,22,AC (Three-Phase),4,117969,Free,3315,50,6,4,Crichton Trust,Dumfries,Grierson House,,DG1 4ZE,55.048152,-3.593376
263749,Type 2 (Socket Only),Operational,2,32,400,22,AC (Three-Phase),1,172490,£0.35/kWh Contactless,203,50,1,5,The Copper Beech,Norwich,John Hyrne Way,Norfolk,NR5 0JT,52.65459015,1.182064959
263750,CHAdeMO,Operational,3,125,400,50,DC,1,172490,£0.35/kWh Contactless,203,50,1,5,The Copper Beech,Norwich,John Hyrne Way,Norfolk,NR5 0JT,52.65459015,1.182064959
263751,CCS (Type 2),Operational,3,125,400,50,DC,1,172490,£0.35/kWh Contactless,203,50,1,5,The Copper Beech,Norwich,John Hyrne Way,Norfolk,NR5 0JT,52.65459015,1.182064959
71009,Type 2 (Socket Only),Operational,2,32,230,7,AC (Single-Phase),16,56301,Free,8,50,1,6,Costco,Twickenham,Hanworth Road,,TW16,51.4207794,-0.4145946
159880,CCS (Type 2),Operational,3,,,50,DC,1,113479,£0.108/kWh; for Polar Plus subscription members only,32,50,1,4,Crowne Plaza,Redhill,Crowne Plaza,,RH19 2BH,51.138546,-0.035804
159881,CHAdeMO,Operational,3,,,50,DC,1,113479,£0.108/kWh; for Polar Plus subscription members only,32,50,1,4,Crowne Plaza,Redhill,Crowne Plaza,,RH19 2BH,51.138546,-0.035804
159882,Type 2 (Tethered Connector),Operational,3,,,43,AC (Three-Phase),1,113479,£0.108/kWh; for Polar Plus subscription members only,32,50,1,4,Crowne Plaza,Redhill,Crowne Plaza,,RH19 2BH,51.138546,-0.035804
190807,Type 2 (Socket Only),Operational,2,16,230,3.7,AC (Single-Phase),,136367,,2244,0,,5,88 Randolph Avenue,London,88 Randolph Avenue,,W9 1BG,51.526801,-0.182114
131689,Type 2 (Socket Only),Operational,2,32,230,6.9,AC (Single-Phase),1,92959,£0.25/kWh,32,50,1,4,The Hare and Hounds Hotel Bath Road,Gloucester,The Hare and Hounds Hotel Bath Road,Tetbury,GL8 8QL,51.612251,-2.201027
140210,Type 2 (Socket Only),Operational,2,32,230,7,AC (Single-Phase),1,99246,Free,3,50,1,6,Hemswell Court,Doncaster,Lancaster Green,,DN21 5TQ,53.393737,-0.574885
34905,Type 2 (Socket Only),Operational,2,32,220,7,AC (Single-Phase),3,31396,£0.059/minute; min £1.18; other tariffs available,25,50,3,4,Calderwood Car Park,London,Calderwood Road,England,SE18 6QW,51.49074094,0.064176207
97874,Type 1 (J1772),Operational,2,16,230,4,AC (Single-Phase),3,31396,£0.059/minute; min £1.18; other tariffs available,25,50,3,4,Calderwood Car Park,London,Calderwood Road,England,SE18 6QW,51.49074094,0.064176207
6562,Type 2 (Socket Only),Operational,2,32,230,7,AC (Single-Phase),1,8990,,19,50,2,1,The Dog and Doublet Inn,Stoke-on-Trent,Sandon,Staffordshire,ST18 ODJ,52.860936,-2.078351
166788,BS1363 3 Pin 13 Amp,Operational,2,13,230,3,AC (Single-Phase),1,8990,,19,50,2,1,The Dog and Doublet Inn,Stoke-on-Trent,Sandon,Staffordshire,ST18 ODJ,52.860936,-2.078351
190238,Type 2 (Socket Only),Operational,2,16,230,3.7,AC (Single-Phase),,135818,,2244,0,,5,Almeric Road,London,Almeric Road,,SW11 1HL,51.459849,-0.165574
191306,Type 2 (Socket Only),Operational,2,32,230,7,AC (Single-Phase),,136737,,8,0,,4,Dealership forecourt,Telford,Stafford Park 1,,TF3 3BD,52.679556,-2.433975
191307,Type 2 (Socket Only),Operational,2,32,230,7,AC (Single-Phase),,136737,,8,0,,4,Dealership forecourt,Telford,Stafford Park 1,,TF3 3BD,52.679556,-2.433975
158831,Type 2 (Tethered Connector),Operational,3,63,400,43,AC (Three-Phase),1,112792,£1.00 + £0.30/kWh,150,50,1,4,MFG Jet Harvest,Doncaster,Wheatley Hall Road,,DN2 4NF,53.547511,-1.091838
158832,CHAdeMO,Operational,3,,,50,DC,1,112792,£1.00 + £0.30/kWh,150,50,1,4,MFG Jet Harvest,Doncaster,Wheatley Hall Road,,DN2 4NF,53.547511,-1.091838
158833,CCS (Type 2),Operational,3,,,50,DC,1,112792,£1.00 + £0.30/kWh,150,50,1,4,MFG Jet Harvest,Doncaster,Wheatley Hall Road,,DN2 4NF,53.547511,-1.091838
76509,Type 2 (Socket Only),Operational,2,32,230,7,AC (Single-Phase),1,60399,1,3,0,17,6,Greenwich Penninsula,London,West Parkside,,SE10 0BL,51.4943726,0.0121187
120671,Tesla (Model S/X),Operational,2,32,230,7,AC (Single-Phase),2,84927,,23,50,2,4,Junction 1 Antrim Outlet,Belfast,111 Ballymena Road,,BT41 4LL,54.730532,-6.233081
157870,CCS (Type 2),Operational,3,,,50,DC,1,112268,£0.108/kWh; for Polar Plus subscription members only,32,50,1,4,Audleys Wood Hotel,Reading,Audleys Wood Hotel,Basingstoke,RG25 2JT,51.245743,-1.083714
157871,CHAdeMO,Operational,3,,,50,DC,1,112268,£0.108/kWh; for Polar Plus subscription members only,32,50,1,4,Audleys Wood Hotel,Reading,Audleys Wood Hotel,Basingstoke,RG25 2JT,51.245743,-1.083714
157872,Type 2 (Tethered Connector),Operational,3,,,43,AC (Three-Phase),1,112268,£0.108/kWh; for Polar Plus subscription members only,32,50,1,4,Audleys Wood Hotel,Reading,Audleys Wood Hotel,Basingstoke,RG25 2JT,51.245743,-1.083714
253473,Type 2 (Socket Only),Operational,2,32,230,7,AC (Single-Phase),,167368,,25,0,,4,Southwood Road,London,Southwood Road,,SE9 3QE,51.436999,0.070888
253474,Type 1 (J1772),Operational,2,13,230,3,AC (Single-Phase),,167368,,25,0,,4,Southwood Road,London,Southwood Road,,SE9 3QE,51.436999,0.070888
145777,Type 2 (Socket Only),Operational,2,32,230,7,AC (Single-Phase),2,103183,Free,3,50,2,4,The Grove Lock (customer Use Only),Luton,Grove,,LU7 0QU,51.897965,-0.671594
13278,Type 2 (Socket Only),Operational,2,32,230,7,AC (Single-Phase),1,14871,,19,50,2,1,The Bloomsbury,York,127 Clifton,,YO30 6BL,53.970868,-1.098695
13279,BS1363 3 Pin 13 Amp,Operational,2,13,230,3,AC (Single-Phase),1,14871,,19,50,2,1,The Bloomsbury,York,127 Clifton,,YO30 6BL,53.970868,-1.098695
180859,Tesla (Model S/X),Operational,2,,,13,AC (Three-Phase),2,129211,,23,50,2,7,Trevase Granary,Hereford,St. Owens Cross,,HR2 8ND,51.92598,-2.711679
208015,CHAdeMO,Operational,3,125,400,50,DC,2,149810,£0.40/kWh,3296,50,2,5,Gallagher Retail Park,Cardiff,Cilgant y Meillion,,CF83 3GX,51.59030623,-3.214740568
208016,CCS (Type 2),Operational,3,125,400,50,DC,2,149810,£0.40/kWh,3296,50,2,5,Gallagher Retail Park,Cardiff,Cilgant y Meillion,,CF83 3GX,51.59030623,-3.214740568
10483,Type 2 (Socket Only),Operational,2,32,230,7,AC (Single-Phase),1,13064,Inclusive; for Polar Plus subscription members only,32,50,1,4,"Bridge Road, Kingston upon Thames",Kingston upon Thames,Bridge Road,Kingston upon Thames,KT9 2RT,51.363738,-0.299173
52610,BS1363 3 Pin 13 Amp,Operational,2,13,230,3,AC (Single-Phase),1,13064,Inclusive; for Polar Plus subscription members only,32,50,1,4,"Bridge Road, Kingston upon Thames",Kingston upon Thames,Bridge Road,Kingston upon Thames,KT9 2RT,51.363738,-0.299173
254970,Type 2 (Socket Only),Operational,2,16,230,3.7,AC (Single-Phase),,167942,,3391,0,,1,Lyndhurst Road,Brighton,Lyndhurst Road,,BN3 6FA,50.829,-0.14125
190073,Type 2 (Socket Only),Operational,2,16,230,3.7,AC (Single-Phase),,135662,,2244,0,,5,Telford Avenue,London,Telford Avenue,,SW2 4XL,51.442208,-0.130659
188898,Type 2 (Socket Only),Operational,2,16,230,3.7,AC (Single-Phase),,134970,,3345,0,,5,Glengall Road,London,Glengall Road,,NW6 7HG,51.538813,-0.201914
182645,Type 2 (Socket Only),Operational,2,32,400,22,AC (Three-Phase),6,130460,£0.25/kWh,3,50,6,4,Oxford Science Park-Schrodinger Building,Oxford,Heatley Road,Oxford,OX4 4GE,51.714625,-1.223024
184208,Type 2 (Socket Only),Partly Operational (Mixed),2,32,400,22,AC (Three-Phase),4,131621,Free,3315,75,4,4,"Cunninghame House, Irvine",Falkirk,Cunninghame House,North Ayrshire,FK9 4TW,55.61299743,-4.674954985
252945,Type 2 (Tethered Connector),Operational,3,63,400,43,AC (Three-Phase),1,167041,Rapid £1.00 fee then £0.30p per Kw/ AC socket 50p fee then 30p per Kw,150,50,2,4,Morrisons Redditch,Birmingham,3 Clearwell Road,,B98 0SW,52.301309,-1.904356
252946,CHAdeMO,Operational,3,125,400,50,DC,1,167041,Rapid £1.00 fee then £0.30p per Kw/ AC socket 50p fee then 30p per Kw,150,50,2,4,Morrisons Redditch,Birmingham,3 Clearwell Road,,B98 0SW,52.301309,-1.904356
252947,CCS (Type 2),Operational,3,125,400,50,DC,1,167041,Rapid £1.00 fee then £0.30p per Kw/ AC socket 50p fee then 30p per Kw,150,50,2,4,Morrisons Redditch,Birmingham,3 Clearwell Road,,B98 0SW,52.301309,-1.904356
183413,Type 2 (Socket Only),Operational,2,32,230,7,AC (Single-Phase),2,130933,£1.00/hour,3,50,2,4,Bowland Fell Park,Bradford,Pendle Hill,North Yorkshire,BD23 4SD,53.997527,-2.336594
143023,Type 2 (Socket Only),Not Operational,2,32,230,7,AC (Single-Phase),2,101297,Free,3315,100,2,4,"Logan Botanical Gardens, Port Logan, NR. Stranraer",Dumfries,Port Logan,Dumfries and Galloway,DG9 9ND,54.7418,-4.95762
266477,Type 2 (Socket Only),Operational,2,16,230,3.7,AC (Single-Phase),,173452,,2244,0,,1,34 Camden Square,London,34 Camden Square,,NW1 9XA,51.544928,-0.131178
72899,Type 2 (Socket Only),Operational,2,32,400,22,AC (Three-Phase),2,57639,£0.20/kWh;min £0.50,20,50,2,4,Whitworth Hospital,Derby,Bakewell Road,Derbyshire,DE4 2JD,53.15109,-1.57489
72900,BS1363 3 Pin 13 Amp,Unknown,2,13,230,3,AC (Single-Phase),1,57639,£0.20/kWh;min £0.50,20,50,2,4,Whitworth Hospital,Derby,Bakewell Road,Derbyshire,DE4 2JD,53.15109,-1.57489
309714,Type 2 (Socket Only),Operational,2,32,230,7,AC (Single-Phase),2,190929,Free,3,50,4,1,Tesco Superstore - Stevenage Broadwater,Stevenage,Broadwater Retail Park,England,SG2 8DT,51.884673,-0.193675
309715,Type 2 (Socket Only),Operational,2,32,230,7,AC (Single-Phase),2,190929,Free,3,50,4,1,Tesco Superstore - Stevenage Broadwater,Stevenage,Broadwater Retail Park,England,SG2 8DT,51.884673,-0.193675
175718,Type 2 (Socket Only),Operational,2,32,400,22,AC (Three-Phase),2,125398,Inclusive; for Polar Plus subscription members only,32,50,2,4,Charter House,Lancaster,Charter House,Lancaster,LA1 1PU,54.048,-2.7962
71809,Type 2 (Socket Only),Operational,2,32,230,7,AC (Single-Phase),3,56881,Free. Parking fees apply.,25,50,3,4,Times Square Car Park,Sutton,Throwley Way,,SM1 1LF,51.363951,-0.191486
95964,Type 1 (J1772),Operational,2,16,230,4,AC (Single-Phase),3,56881,Free. Parking fees apply.,25,50,3,4,Times Square Car Park,Sutton,Throwley Way,,SM1 1LF,51.363951,-0.191486
127818,Type 2 (Socket Only),Operational,2,32,230,4,AC (Single-Phase),2,4399,£0.108/kWh; for Polar Plus subscription members only. Parking fees apply. 24/7,32,50,4,4,Q-Park Leicester Square Car Park,London,Whitcomb Street,,WC2H 7DT,51.509162,-0.13065
187606,Type 2 (Tethered Connector),Operational,3,,,43,AC (Three-Phase),1,134073,Free,3315,50,1,4,"Leslie Street Car Park, Blairgowrie",Perth,"Leslie Street Car Park, Blairgowrie",,PH10 6AH,56.591179,-3.338006
187607,CHAdeMO,Operational,3,,,50,DC,1,134073,Free,3315,50,1,4,"Leslie Street Car Park, Blairgowrie",Perth,"Leslie Street Car Park, Blairgowrie",,PH10 6AH,56.591179,-3.338006
187608,CCS (Type 2),Operational,3,,,50,DC,1,134073,Free,3315,50,1,4,"Leslie Street Car Park, Blairgowrie",Perth,"Leslie Street Car Park, Blairgowrie",,PH10 6AH,56.591179,-3.338006
253564,Type 2 (Socket Only),Operational,2,32,230,7,AC (Single-Phase),,167411,,25,0,,4,Hicks Street,London,Hicks Street,,SE8 5AG,51.488037,-0.040206
253565,Type 1 (J1772),Operational,2,13,230,3,AC (Single-Phase),,167411,,25,0,,4,Hicks Street,London,Hicks Street,,SE8 5AG,51.488037,-0.040206
302861,Type 2 (Socket Only),Operational,2,16,230,3.7,AC (Single-Phase),,187645,,3345,0,,5,SE15 3EQ,London,,,SE15 3EQ,51.454865,-0.050465
60915,Type 2 (Socket Only),Operational,2,32,400,22,AC (Three-Phase),2,49277,£1.00/charge admin fee. Parking fees apply.,20,50,2,4,Military Road Car Park,Canterbury,Military Road,Kent,CT21 5BJ,51.07124,1.08005
140602,Type 2 (Socket Only),Operational,2,32,230,7,AC (Single-Phase),1,99495,Free,3,50,1,6,Williams Haulage,Llandudno,Old Station Road,,LL21 0LB,52.959505,-3.408876
253022,Type 2 (Socket Only),Operational,2,32,400,22,AC (Three-Phase),1,167104,£0.36/kWh Contactless,203,50,,5,"The Cobblestones, March",Peterborough,Wisbech Rd,,PE15 0BA,52.56268,0.06582
253023,CHAdeMO,Operational,3,125,400,50,DC,1,167104,£0.36/kWh Contactless,203,50,,5,"The Cobblestones, March",Peterborough,Wisbech Rd,,PE15 0BA,52.56268,0.06582
253024,CCS (Type 2),Operational,3,125,400,50,DC,1,167104,£0.36/kWh Contactless,203,50,,5,"The Cobblestones, March",Peterborough,Wisbech Rd,,PE15 0BA,52.56268,0.06582
187200,Type 2 (Socket Only),Operational,2,32,400,22,AC (Three-Phase),2,133759,Token system - Free,45,50,2,6,Sovereign House Rear Car Park,Cambridge,Vision Park,Cambridgeshire,CB24 9BZ,52.24388432,0.108704652
140108,Type 2 (Socket Only),Operational,2,32,230,7,AC (Single-Phase),3,99180,£0.059/minute; min £1.18; other tariffs available,25,50,3,4,Danehurst Street,London,3 Danehurst Street,,SW6 6BZ,51.47813296,-0.211036994
140109,Type 1 (J1772),Operational,2,16,230,4,AC (Single-Phase),3,99180,£0.059/minute; min £1.18; other tariffs available,25,50,3,4,Danehurst Street,London,3 Danehurst Street,,SW6 6BZ,51.47813296,-0.211036994
60388,Type 2 (Socket Only),Unknown,2,32,400,22,AC (Three-Phase),2,48870,,8,0,2,2,"Stroud, Gloc Police",Gloucester,Ryeleaze Road,,GL5 1QQ,51.745483,-2.213986
266575,Type 2 (Socket Only),Operational,2,16,230,3.7,AC (Single-Phase),,173517,,3345,0,,5,4 Penton Place,London,4 Penton Place,,SE114JE,51.490059,-0.102907
175692,Type 2 (Socket Only),Operational,2,32,230,7,AC (Single-Phase),2,125377,Free,3315,50,2,4,Kinlochleven,Perth,Kinlochleven Community Toilets,,PH50 4SH,56.71383,-4.96253
121536,Tesla (Model S/X),Operational,2,32,230,13,AC (Three-Phase),1,85459,,23,50,1,4,"Crowne Plaza Resort, Colchester Five Lakes",Chelmsford,"Crowne Plaza Resort, Colchester Five Lakes",,CM9 8HX,51.786238,0.804974
206994,Type 2 (Tethered Connector),Operational,3,63,400,43,AC (Three-Phase),3,149056,£0.25/kWh,3,50,3,4,Lidl-Manchester,Manchester,319 Worsley Road,,M30 8BW,53.4894443,-2.3696864
206995,CCS (Type 2),Operational,3,,,50,DC,1,149056,£0.25/kWh,3,50,3,4,Lidl-Manchester,Manchester,319 Worsley Road,,M30 8BW,53.4894443,-2.3696864
206996,CHAdeMO,Operational,3,,,50,DC,1,149056,£0.25/kWh,3,50,3,4,Lidl-Manchester,Manchester,319 Worsley Road,,M30 8BW,53.4894443,-2.3696864
218497,Type 2 (Socket Only),Operational,2,32,400,22,AC (Three-Phase),1,149056,£0.25/kWh,3,50,3,4,Lidl-Manchester,Manchester,319 Worsley Road,,M30 8BW,53.4894443,-2.3696864
44433,Type 2 (Socket Only),Operational,2,32,230,7,AC (Single-Phase),1,40810,€0.30 per kWh,73,50,1,1,Morgan Fire Protection,Enfield,"Hillgrove Business Park, Nazeing Road",Essex,EN9 2HB,51.73689437,0.000321458
302937,Type 2 (Socket Only),Operational,2,16,230,3.7,AC (Single-Phase),,187700,,2244,0,,5,9 Milner Street,London,9 Milner Street,,SW3 2QB,51.49428,-0.164183
203161,Type 2 (Socket Only),Operational,2,32,400,22,AC (Three-Phase),4,146209,Free,3315,50,4,4,"Westhill Library, Westhill",Aberdeen,Westhill Primary School,Westhill,AB32 6FY,57.15514,-2.27727
158184,Type 2 (Socket Only),Operational,2,32,230,7,AC (Single-Phase),2,112454,Free,20,50,2,4,"Monkton Stadium, South Tyneside",Newcastle upon Tyne,Dene Terrace,,NE32 5NJ,54.96683,-1.49814
583,Type 2 (Socket Only),Operational,2,32,400,22,AC (Three-Phase),4,5834,£0.15/kWh,3,50,4,4,Woburn Place NCP Car Park,London,Coram Street,London,WC1H 0ND,51.5234154,-0.1261449
270085,CHAdeMO,Operational,3,,,50,DC,2,174378,Free,3315,50,2,4,Fountain Road,Kirkwall,Fountain Road,Scotland,KW10 6TH,57.97392353,-3.975521801
270086,CCS (Type 2),Operational,3,,,50,DC,2,174378,Free,3315,50,2,4,Fountain Road,Kirkwall,Fountain Road,Scotland,KW10 6TH,57.97392353,-3.975521801
270087,Type 2 (Tethered Connector),Operational,3,63,400,43,AC (Three-Phase),2,174378,Free,3315,50,2,4,Fountain Road,Kirkwall,Fountain Road,Scotland,KW10 6TH,57.97392353,-3.975521801
270088,Unknown,Operational,,,,,,2,174378,Free,3315,50,2,4,Fountain Road,Kirkwall,Fountain Road,Scotland,KW10 6TH,57.97392353,-3.975521801
166441,Type 2 (Socket Only),Operational,2,32,230,7,AC (Single-Phase),2,117656,£0.108/kWh; for Polar Plus subscription members only,32,50,2,4,Seacroft Road Public Car Park,Lincoln,Seacroft Road Public Car Park,East Lindsey,LN12 2DT,53.3391,0.26082
54663,Type 2 (Tethered Connector),Not Operational,3,63,400,43,AC (Three-Phase),1,44500,Free,20,100,3,4,Ponteland Leisure Centre,Newcastle upon Tyne,Callerton Lane,,NE20 9EG,55.048,-1.73977
184966,Type 2 (Socket Only),Operational,2,32,230,7,AC (Single-Phase),2,132148,1,3,50,2,4,Mcdonald's-Stowmarket,Ipswich,Gun Cotton Way,,IP14 5EP,52.182881,1.018992
14788,Type 2 (Socket Only),Operational,2,32,230,7,AC (Single-Phase),4,16323,Free,45,50,2,6,Network Rail Westwood,Coventry,320 Westwood Heath Road,,CV4 8GP,52.386528,-1.587244
59944,Type 2 (Socket Only),Operational,2,32,400,22,AC (Three-Phase),2,48489,£1.00/charge admin fee. Parking fees apply.,20,50,2,4,Cyclopark,Tunbridge Wells,Wrotham Road,Kent,TN11 7NP,51.418934,0.354683
26354,Type 2 (Socket Only),Operational,2,,,22,AC (Three-Phase),8,24252,27p/kWh,1,50,2,1,York Designer Outlet,York,St Nicholas Avenue,,YO19 4TA,53.92352699,-1.078233922
307986,Type 2 (Tethered Connector),Operational,2,,,22,AC (Three-Phase),8,24252,27p/kWh,1,50,2,1,York Designer Outlet,York,St Nicholas Avenue,,YO19 4TA,53.92352699,-1.078233922
59978,Type 2 (Socket Only),Operational,2,32,230,7,AC (Single-Phase),2,48523,,45,50,2,6,Nissan Polesworth Tamworth,Birmingham,Glendon Road,,B78 1HA,52.616873,-1.615
19812,Type 2 (Socket Only),Operational,2,32,230,7,AC (Single-Phase),1,19486,,19,50,7,1,Arundell Arms Hotel and Restaurant,Plymouth,The Arundell Arms Hotel,Devon,PL16 0AA,50.64349235,-4.284050977
19813,BS1363 3 Pin 13 Amp,Operational,2,13,230,3,AC (Single-Phase),1,19486,,19,50,7,1,Arundell Arms Hotel and Restaurant,Plymouth,The Arundell Arms Hotel,Devon,PL16 0AA,50.64349235,-4.284050977
272566,Type 2 (Socket Only),Operational,2,32,400,22,AC (Three-Phase),1,175569,£0.35/kWh,150,50,1,5,Morrisons Rubery,Birmingham,New road,England,B45 9AH,52.39634091,-2.005907501
272567,CHAdeMO,Operational,3,125,400,50,DC,1,175569,£0.35/kWh,150,50,1,5,Morrisons Rubery,Birmingham,New road,England,B45 9AH,52.39634091,-2.005907501
272568,CCS (Type 2),Operational,3,125,400,50,DC,1,175569,£0.35/kWh,150,50,1,5,Morrisons Rubery,Birmingham,New road,England,B45 9AH,52.39634091,-2.005907501
190142,Type 2 (Socket Only),Operational,2,16,230,3.7,AC (Single-Phase),,135727,,2244,0,,5,Holmside Road,London,Holmside Road,,SW12 8RJ,51.451855,-0.153795
191416,CCS (Type 2),Operational,3,125,400,50,DC,,136808,,20,0,,4,Chester Street,Manchester,Chester Street,England,M1 5SX,53.47198276,-2.240938267
191417,CHAdeMO,Operational,3,125,400,50,DC,,136808,,20,0,,4,Chester Street,Manchester,Chester Street,England,M1 5SX,53.47198276,-2.240938267
191418,CHAdeMO,Operational,3,125,400,50,DC,,136808,,20,0,,4,Chester Street,Manchester,Chester Street,England,M1 5SX,53.47198276,-2.240938267
313412,CCS (Type 2),Operational,3,,,120,DC,2,192797,£0.50/kWh,3296,50,2,5,McDonald's Staines,Twickenham,554 London Road,England,TW15 3AE,51.44262214,-0.474410056
313413,CHAdeMO,Operational,3,,,100,DC,2,192797,£0.50/kWh,3296,50,2,5,McDonald's Staines,Twickenham,554 London Road,England,TW15 3AE,51.44262214,-0.474410056
19145,BS1363 3 Pin 13 Amp,Operational,2,13,230,3,AC (Single-Phase),2,18901,Inclusive; for Polar Plus subscription members only,32,50,2,4,Bicester Village Shopping Centre,Oxford,Pingle Drive,,OX26 6WD,51.892739,-1.150416
19146,Type 2 (Socket Only),Operational,2,32,230,7,AC (Single-Phase),2,18901,Inclusive; for Polar Plus subscription members only,32,50,2,4,Bicester Village Shopping Centre,Oxford,Pingle Drive,,OX26 6WD,51.892739,-1.150416
191926,Type 2 (Socket Only),Operational,2,32,230,7,AC (Single-Phase),,137075,,20,0,,1,Cark Park of Fetlar Interpretive Centre,Lerwick,15 Stakkafletts,,ZE2 9DJ,60.603243,-0.89499
191927,Type 2 (Socket Only),Operational,2,32,230,7,AC (Single-Phase),,137075,,20,0,,1,Cark Park of Fetlar Interpretive Centre,Lerwick,15 Stakkafletts,,ZE2 9DJ,60.603243,-0.89499
63983,Type 2 (Socket Only),Operational,2,32,230,7,AC (Single-Phase),2,51597,£1.00/charge admin fee. Parking fees apply.,20,50,2,4,Belmont House,Teesside,Rectory Lane,,TS14 7FD,54.53264,-1.05461
19524,Type 2 (Socket Only),Unknown,,,,,,1,19243,Free,20,50,2,1,Doxford Hall Hotel and Spa,Newcastle upon Tyne,Doxford Hall Hotel and Spa,Northumberland,NE67 5DN,55.5110601,-1.7063919
205646,Type 2 (Socket Only),Operational,2,32,230,7,AC (Single-Phase),,148128,,3393,0,,1,Northgate Car Park,Portsmouth,Northgate,,PO19 6AA,50.841761,-0.777495
205647,Type 2 (Socket Only),Operational,2,32,230,7,AC (Single-Phase),,148128,,3393,0,,1,Northgate Car Park,Portsmouth,Northgate,,PO19 6AA,50.841761,-0.777495
189725,Type 2 (Socket Only),Operational,2,32,230,7,AC (Single-Phase),4,135418,Free,3,50,4,4,Tesco Superstore-Wokingham,Reading,78 Finchampstead Road,,RG40 2NS,51.4031,-0.837827
24491,Type 2 (Socket Only),Operational,2,32,230,7,AC (Single-Phase),,22810,,16,0,,4,Sunderland Academy of Light,Sunderland,Sunderland Road,,SR6 7UW,54.942833,-1.392631
184584,Type 2 (Socket Only),Operational,2,32,230,7,AC (Single-Phase),3,131908,£0.13/kWh,3,50,3,4,Aberystwyth University,Shrewsbury,Penglais Campus,Aberystwyth,SY23 3DU,52.417508,-4.064437
256235,Type 2 (Tethered Connector),Operational,3,,,43,AC (Three-Phase),1,158082,Polar Plus 15p/kWh Polar Instant 25p/kWh Contactless 30p/kWh,32,50,2,5,The Greenman,Doncaster,110 Station Road,England,DN41 8AP,53.588909,-0.180175
256236,CHAdeMO,Operational,3,,,50,DC,1,158082,Polar Plus 15p/kWh Polar Instant 25p/kWh Contactless 30p/kWh,32,50,2,5,The Greenman,Doncaster,110 Station Road,England,DN41 8AP,53.588909,-0.180175
256237,CCS (Type 2),Operational,3,,,50,DC,1,158082,Polar Plus 15p/kWh Polar Instant 25p/kWh Contactless 30p/kWh,32,50,2,5,The Greenman,Doncaster,110 Station Road,England,DN41 8AP,53.588909,-0.180175
120607,Type 2 (Socket Only),Operational,2,32,230,7,AC (Single-Phase),2,84874,£0.108/kWh; for Polar Plus subscription members only. Parking fees apply,32,50,2,4,Guineas Car Park,Cambridge,Drapery Row,Suffolk,CB8 8EG,52.245518,0.406824
121919,Type 2 (Socket Only),Operational,2,32,230,7,AC (Single-Phase),2,85766,Free,3,50,13,6,Greenwich Peninsula-East Parkside (2),London,Greenwich Peninsular,,SE10 0JF,51.499153,0.010021
302777,Type 2 (Socket Only),Operational,2,32,230,7,AC (Single-Phase),,187595,,3,0,,1,Chawton Park Road,Guildford,Chawton Park Road,,GU34 1ST,51.137611,-0.99275
302778,Type 2 (Socket Only),Operational,2,32,230,7,AC (Single-Phase),,187595,,3,0,,1,Chawton Park Road,Guildford,Chawton Park Road,,GU34 1ST,51.137611,-0.99275
191199,Type 2 (Socket Only),Operational,2,32,400,22,AC (Three-Phase),,136664,,3326,50,,5,Adventure Awaits Day Nursery,Birmingham,62 Birchfield Road,,B97 4LH,52.293174,-1.94774
191200,Type 2 (Socket Only),Operational,2,32,400,22,AC (Three-Phase),,136664,,3326,50,,5,Adventure Awaits Day Nursery,Birmingham,62 Birchfield Road,,B97 4LH,52.293174,-1.94774
132225,Tesla (Model S/X),Operational,2,32,230,7,AC (Single-Phase),1,93348,,23,50,1,4,Lanhydrock Hotel & Golf Club,Plymouth,Lanhydrock Hotel & Golf Club Lostwithiel Road,,PL30 5AQ,50.449689,-4.714279
24224,Type 2 (Socket Only),Operational,2,32,230,7,AC (Single-Phase),1,22543,Free,3,0,1,4,Corby Enterprise Centre pod-point,Northampton,Barnwell Gardens,Northamptonshire,NN17 5EU,52.505127,-0.64213
105297,BS1363 3 Pin 13 Amp,Operational,2,13,230,3,AC (Single-Phase),1,22543,Free,3,0,1,4,Corby Enterprise Centre pod-point,Northampton,Barnwell Gardens,Northamptonshire,NN17 5EU,52.505127,-0.64213
266724,Type 2 (Socket Only),Operational,2,32,400,22,AC (Three-Phase),,173628,,,0,,1,Lime Street,Swansea,Lime Street,,SA4 4AD,51.667815,-4.040865
266725,Type 2 (Socket Only),Operational,2,32,400,22,AC (Three-Phase),,173628,,,0,,1,Lime Street,Swansea,Lime Street,,SA4 4AD,51.667815,-4.040865
64833,Type 2 (Socket Only),Operational,2,32,230,7,AC (Single-Phase),2,52211,Free,8,50,2,6,College of West Anglia (Cambridge Campus),Cambridge,Landbeach Road,Cambridgeshire,CB24 6DB,52.2478211,0.1637559
253517,Type 2 (Socket Only),Operational,2,32,230,7,AC (Single-Phase),,167391,,25,0,,4,Swingate Lane,London,Swingate Lane,,SE18 2JB,51.474913,0.093197
253518,Type 2 (Socket Only),Operational,2,32,230,7,AC (Single-Phase),,167391,,25,0,,4,Swingate Lane,London,Swingate Lane,,SE18 2JB,51.474913,0.093197
253519,Type 2 (Socket Only),Operational,2,32,230,7,AC (Single-Phase),,167391,,25,0,,4,Swingate Lane,London,Swingate Lane,,SE18 2JB,51.474913,0.093197
233839,Tesla Supercharger,Operational,3,,,120,DC,12,162469,£0.24/kWh;other tariffs for older cars,23,50,12,4,"Hilton Park, Southbound Supercharger",Wolverhampton,Essington,,WV11 2AT ,52.644065,-2.054251
190670,Type 2 (Socket Only),Operational,2,16,230,3.7,AC (Single-Phase),,136234,,2244,0,,5,Askew Crescent,London,Askew Crescent,,W12 9DZ,51.504838,-0.245721
152526,Type 2 (Socket Only),Operational,2,32,230,7,AC (Single-Phase),2,107990,£0.108/kWh; for Polar Plus subscription members only,32,50,2,4,Walthamstow,London,Walthamstow,London,E17 3AA,51.585331,-0.017642
133666,Type 2 (Socket Only),Operational,2,32,230,7,AC (Single-Phase),2,94527,£1.00/hour,3,50,2,4,Ibis Plymouth,Plymouth,Marsh Mills,,PL6 8LR,50.395799,-4.094969
228009,Type 2 (Socket Only),Operational,2,32,230,7,AC (Single-Phase),,158128,,,0,,1,77 Cumeragh Lane,Preston,77 Cumeragh Lane,,PR3 2AN,53.820627,-2.655542
273586,Type 2 (Socket Only),Operational,2,32,400,22,AC (Three-Phase),1,176095,£0.25/kWh,3,50,1,4,Lidl-Richmond Road,Twickenham,383-393 Richmond Road,England,TW1 2EF,51.455762,-0.310703
273587,CCS (Type 2),Operational,3,,,50,DC,1,176095,£0.25/kWh,3,50,1,4,Lidl-Richmond Road,Twickenham,383-393 Richmond Road,England,TW1 2EF,51.455762,-0.310703
273588,CHAdeMO,Operational,3,,,50,DC,1,176095,£0.25/kWh,3,50,1,4,Lidl-Richmond Road,Twickenham,383-393 Richmond Road,England,TW1 2EF,51.455762,-0.310703
140743,Type 2 (Socket Only),Operational,2,16,230,3.6,AC (Single-Phase),1,99600,,2244,50,1,4,Ubitricity All Saints Road,London,21 All Saints Road,England,W11 1HE,51.51825,-0.204089
191275,Type 2 (Socket Only),Operational,2,32,230,7,AC (Single-Phase),,136721,,,0,,4,First two bays at top of ramp on LHS,Birmingham,Livery Street,,B3 2BJ,52.483251,-1.899288
191276,Type 2 (Socket Only),Operational,2,32,230,7,AC (Single-Phase),,136721,,,0,,4,First two bays at top of ramp on LHS,Birmingham,Livery Street,,B3 2BJ,52.483251,-1.899288
252821,Type 2 (Socket Only),Operational,2,32,400,22,AC (Three-Phase),,166996,,150,50,,5,"Mount Hermon, Westfield",Guildford,"Mount Hermon, Westfield",,GU21 6ND,51.315492,-0.568045
252822,CHAdeMO,Operational,3,125,400,50,DC,,166996,,150,50,,5,"Mount Hermon, Westfield",Guildford,"Mount Hermon, Westfield",,GU21 6ND,51.315492,-0.568045
252823,Type 2 (Tethered Connector),Operational,3,125,400,50,DC,,166996,,150,50,,5,"Mount Hermon, Westfield",Guildford,"Mount Hermon, Westfield",,GU21 6ND,51.315492,-0.568045
129361,Tesla (Model S/X),Operational,2,,230,6,AC (Single-Phase),1,91230,,23,50,1,6,The Steading,Inverness,4 Balnapolaig,Scotland,IV25 3HA,57.894827,-4.05345
186494,Type 2 (Socket Only),Operational,2,32,230,7,AC (Single-Phase),4,133173,Free,3,50,4,4,Tesco Superstore-Wells,Bath,Tucker Street,,BA5 2DZ,51.206504,-2.651493
226700,Type 2 (Socket Only),Planned For Future Date,2,32,230,22,,4,157398,Free,19,50,4,1,The Newt in Somerset,Bath,Haspen,Somerset,BA7 7NG,51.078181,-2.486792
34869,CHAdeMO,Operational,3,,,50,DC,1,31380,Free,3315,50,2,4,Glencoe Mountain Sports,Perth,Kingshouse,Argyll,PH49 4HZ,56.63314619,-4.827770908
34870,Type 2 (Tethered Connector),Operational,3,,400,43,AC (Three-Phase),1,31380,Free,3315,50,2,4,Glencoe Mountain Sports,Perth,Kingshouse,Argyll,PH49 4HZ,56.63314619,-4.827770908
34871,CCS (Type 2),Not Operational,3,,,50,DC,1,31380,Free,3315,50,2,4,Glencoe Mountain Sports,Perth,Kingshouse,Argyll,PH49 4HZ,56.63314619,-4.827770908
121942,Type 2 (Socket Only),Operational,2,32,230,7,AC (Single-Phase),1,85789,Free,3,50,2,6,Nhs Lincolnshire West CCG,Lincoln,Cross O' Cliff,,LN4 2HN,53.198297,-0.54018
76224,Type 2 (Socket Only),Operational,2,32,230,7,AC (Single-Phase),2,60225,Free,3,50,2,4,Gerrards Cross Railway Station,Slough,Station Approach,Buckinghamshire,SL9 8PP,51.5886781,-0.5533055
268867,CCS (Type 2),Operational,3,,,50,DC,1,174102,£0.49/kWh,3341,50,1,5,Edde Cross Street Car Park,Hereford,Edde Cross Street,Herefordshire,HR9 7BU,51.91653264,-2.58572517
268868,CHAdeMO,Operational,3,,,50,DC,1,174102,£0.49/kWh,3341,50,1,5,Edde Cross Street Car Park,Hereford,Edde Cross Street,Herefordshire,HR9 7BU,51.91653264,-2.58572517
268869,Type 2 (Socket Only),Operational,2,32,400,22,AC (Three-Phase),1,174102,£0.49/kWh,3341,50,1,5,Edde Cross Street Car Park,Hereford,Edde Cross Street,Herefordshire,HR9 7BU,51.91653264,-2.58572517
190811,Type 2 (Socket Only),Operational,2,16,230,3.7,AC (Single-Phase),,136371,,2244,0,,4,Tredegar Square,London,Tredegar Square,,E3 5AG,51.527198,-0.03278
303106,Type 2 (Socket Only),Operational,2,32,400,22,AC (Three-Phase),,187829,,150,0,,5,Upper Trosnant Street,Newport,Upper Trosnant Street,,NP4 8AU,51.69955,-3.03804
303107,Type 2 (Socket Only),Operational,2,32,400,22,AC (Three-Phase),,187829,,150,0,,5,Upper Trosnant Street,Newport,Upper Trosnant Street,,NP4 8AU,51.69955,-3.03804
257679,Type 2 (Socket Only),Operational,2,32,230,7,AC (Single-Phase),4,169360,Free,3,50,4,4,Tesco Superstore-Petersfield,Guildford,The Causeway,,GU31 4JR,51.001439,-0.938487
101204,Type 2 (Socket Only),Operational,2,32,230,7,AC (Single-Phase),2,70675,Free,3,50,4,6,Marlow International,Slough,Wiltshire Road,Buckinghamshire,SL7 1AJ,51.573975,-0.760567
185883,Type 2 (Socket Only),Operational,2,32,230,7,AC (Single-Phase),3,132762,£0.059/minute; min £1.18; other tariffs available,25,50,3,4,Webbs Road,London,Webb's Road Junction Broomwood Road,,SW11 6SE,51.454375,-0.161057
185884,Type 1 (J1772),Operational,2,,230,4,AC (Single-Phase),3,132762,£0.059/minute; min £1.18; other tariffs available,25,50,3,4,Webbs Road,London,Webb's Road Junction Broomwood Road,,SW11 6SE,51.454375,-0.161057
185885,Type 2 (Socket Only),Operational,2,32,230,7,AC (Single-Phase),3,132762,£0.059/minute; min £1.18; other tariffs available,25,50,3,4,Webbs Road,London,Webb's Road Junction Broomwood Road,,SW11 6SE,51.454375,-0.161057
185886,Type 1 (J1772),Operational,2,,230,4,AC (Single-Phase),3,132762,£0.059/minute; min £1.18; other tariffs available,25,50,3,4,Webbs Road,London,Webb's Road Junction Broomwood Road,,SW11 6SE,51.454375,-0.161057
26243,CHAdeMO,Not Operational,3,,,50,DC,1,24182,Inclusive; for Polar Plus subscription members only. Parking fees apply.,32,75,2,4,Warminster Central Car Park,Bath,The Avenue,Wiltshire,BA12 9BP,51.20591546,-2.17859745
34691,CCS (Type 2),Not Operational,3,,,50,DC,1,24182,Inclusive; for Polar Plus subscription members only. Parking fees apply.,32,75,2,4,Warminster Central Car Park,Bath,The Avenue,Wiltshire,BA12 9BP,51.20591546,-2.17859745
34692,Type 2 (Tethered Connector),Operational,3,63,400,43,AC (Three-Phase),1,24182,Inclusive; for Polar Plus subscription members only. Parking fees apply.,32,75,2,4,Warminster Central Car Park,Bath,The Avenue,Wiltshire,BA12 9BP,51.20591546,-2.17859745
303325,Type 2 (Socket Only),Operational,2,32,230,7,AC (Single-Phase),,187983,,3391,0,,1,East Street,Leicester,East Street,,LE2 5AF,52.59974,-1.08285
303326,Type 2 (Socket Only),Operational,2,32,230,7,AC (Single-Phase),,187983,,3391,0,,1,East Street,Leicester,East Street,,LE2 5AF,52.59974,-1.08285
58113,Type 2 (Socket Only),Operational,2,32,230,7,AC (Single-Phase),1,47156,Inclusive; for Polar Plus subscription members only,32,50,1,4,ASDA Paignton Supermarket,Torquay,Borough Close,,TQ4 7EP,50.424522,-3.588183
58114,BS1363 3 Pin 13 Amp,Operational,2,13,230,3,AC (Single-Phase),1,47156,Inclusive; for Polar Plus subscription members only,32,50,1,4,ASDA Paignton Supermarket,Torquay,Borough Close,,TQ4 7EP,50.424522,-3.588183
264707,Type 2 (Socket Only),Operational,2,,,22,AC (Three-Phase),2,173014,AC socket 50p fee then 30p per kWh,150,50,1,4,Market Rasen Leisure Centre,Lincoln,Gainsborough Road,England,LN8 3JW,53.38777412,-0.343307846
178697,Type 2 (Socket Only),Operational,2,32,400,22,AC (Three-Phase),2,127649,,22,50,2,4,Stormont Hotel,Belfast,Upper Newtownards Road,,BT4 3LP,54.59371,-5.839133
158271,Type 2 (Tethered Connector),Operational,3,64,400,43,AC (Three-Phase),1,112507,Â£1.00 + Â£0.30/kWh,150,50,1,4,MFG Shell Horninglow,Derby,Derby Road,,DE14 1RY,52.817746,-1.630127
158272,CHAdeMO,Operational,3,,,50,DC,1,112507,Â£1.00 + Â£0.30/kWh,150,50,1,4,MFG Shell Horninglow,Derby,Derby Road,,DE14 1RY,52.817746,-1.630127
158273,CCS (Type 2),Operational,3,,,50,DC,1,112507,Â£1.00 + Â£0.30/kWh,150,50,1,4,MFG Shell Horninglow,Derby,Derby Road,,DE14 1RY,52.817746,-1.630127
253556,Type 2 (Socket Only),Operational,2,16,230,3.7,AC (Single-Phase),,167407,,3345,0,,5,28 Liverpool Grove,London,28 Liverpool Grove,,SE172PY,51.486165,-0.092671
302874,CHAdeMO,Operational,3,250,400,100,DC,,187653,,3392,0,,5,Northend Rd,Dartford,Northend Rd,,DA8 3RF,51.466354,0.181778
302875,Type 2 (Tethered Connector),Operational,3,375,930,175,DC,,187653,,3392,0,,5,Northend Rd,Dartford,Northend Rd,,DA8 3RF,51.466354,0.181778
302876,CHAdeMO,Operational,3,250,400,100,DC,,187653,,3392,0,,5,Northend Rd,Dartford,Northend Rd,,DA8 3RF,51.466354,0.181778
302877,Type 2 (Tethered Connector),Operational,3,375,930,175,DC,,187653,,3392,0,,5,Northend Rd,Dartford,Northend Rd,,DA8 3RF,51.466354,0.181778
302878,CHAdeMO,Operational,3,250,400,100,DC,,187653,,3392,0,,5,Northend Rd,Dartford,Northend Rd,,DA8 3RF,51.466354,0.181778
302879,Type 2 (Tethered Connector),Operational,3,375,930,175,DC,,187653,,3392,0,,5,Northend Rd,Dartford,Northend Rd,,DA8 3RF,51.466354,0.181778
302880,CHAdeMO,Operational,3,250,400,100,DC,,187653,,3392,0,,5,Northend Rd,Dartford,Northend Rd,,DA8 3RF,51.466354,0.181778
302881,Type 2 (Tethered Connector),Operational,3,375,930,175,DC,,187653,,3392,0,,5,Northend Rd,Dartford,Northend Rd,,DA8 3RF,51.466354,0.181778
190485,Type 2 (Socket Only),Operational,2,16,230,3.7,AC (Single-Phase),,136058,,2244,0,,5,Claxton Grove,London,Claxton Grove,,W6 8HD,51.487328,-0.216255
187592,Type 2 (Socket Only),Operational,2,32,400,22,AC (Three-Phase),2,134065,Free,3315,50,2,4,"Sauchiehall Street, Glasgow",Glasgow,Sauchiehall Street,Glasgow,G3 7PJ,55.86615,-4.274642
71827,Type 2 (Socket Only),Operational,2,13,230,22,AC (Single-Phase),1,56897,Free. Parking fees apply.,25,50,2,4,The Bittoms Car Park,Kingston upon Thames,The Bittoms Car Park,,KT1 2AG,51.40329401,-0.302247271
140106,Type 2 (Socket Only),Operational,2,32,230,7,AC (Single-Phase),3,99179,£0.059/minute; min £1.18; other tariffs available,25,50,3,4,Ivyhouse Road,Romford,Opposite 433 Ivyhouse Road,,RM9 5SB,51.54156231,0.127967593
140107,Type 1 (J1772),Operational,2,16,230,4,AC (Single-Phase),3,99179,£0.059/minute; min £1.18; other tariffs available,25,50,3,4,Ivyhouse Road,Romford,Opposite 433 Ivyhouse Road,,RM9 5SB,51.54156231,0.127967593
165375,Tesla (Model S/X),Operational,2,,,6,AC (Single-Phase),2,116817,,23,50,2,4,Chapter One Restaurant,Bromley,Farnborough Common,,BR6 8NF,51.365871,0.053105
266469,Type 2 (Socket Only),Operational,2,16,230,3.7,AC (Single-Phase),,173444,,2244,0,,1,47 Montpelier Grove,London,47 Montpelier Grove,,NW5 2XD,51.553371,-0.13543
142992,CHAdeMO,Operational,3,125,400,50,DC,2,101281,£0.25/kWh,3296,50,2,5, Bannatyne Health Club - Bristol,Bristol,80 Redland Road,,BS6 6AG,51.468163,-2.597067
143001,CCS (Type 2),Operational,3,125,500,50,DC,2,101281,£0.25/kWh,3296,50,2,5, Bannatyne Health Club - Bristol,Bristol,80 Redland Road,,BS6 6AG,51.468163,-2.597067
22527,Type 2 (Socket Only),Operational,2,32,230,7,AC (Single-Phase),1,20712,Free,3,0,9,1,Sainsbury's Tottenham,London,28 Northumberland Park,,N17 0TX,51.6062384,-0.0664288
105298,BS1363 3 Pin 13 Amp,Operational,2,13,230,3,AC (Single-Phase),1,20712,Free,3,0,9,1,Sainsbury's Tottenham,London,28 Northumberland Park,,N17 0TX,51.6062384,-0.0664288
184236,Type 2 (Socket Only),Operational,2,32,230,7,AC (Single-Phase),2,131637,Free,3315,50,2,4,"Millbrae Car Park, Ayr",Kilmarnock,"Millbrae Car Park, Ayr",,KA7 3BA,55.459351,-4.623255
252967,Type 2 (Socket Only),Operational,2,16,230,3.7,AC (Single-Phase),,167057,,3345,0,,5,CV2 4DF,Coventry,,,CV2 4DF,52.406778,-1.478577
159553,Type 2 (Socket Only),Operational,2,32,230,7,AC (Single-Phase),12,113316,£0.108/kWh; for Polar Plus subscription members only,32,50,12,4,Intu Milton Keynes,Milton Keynes,Intu Milton Keynes,,MK9 3GB,52.041122,-0.756753
137966,Type 2 (Tethered Connector),Operational,3,63,400,43,AC (Three-Phase),1,97167,£0.25/kWh,3,50,4,4,Lidl-Norwich,Norwich,Aylsham Road,,NR3 2RY,52.650592,1.281146
137967,CHAdeMO,Operational,3,125,500,50,DC,1,97167,£0.25/kWh,3,50,4,4,Lidl-Norwich,Norwich,Aylsham Road,,NR3 2RY,52.650592,1.281146
137984,CCS (Type 2),Operational,3,125,500,50,DC,1,97167,£0.25/kWh,3,50,4,4,Lidl-Norwich,Norwich,Aylsham Road,,NR3 2RY,52.650592,1.281146
137985,Type 2 (Socket Only),Operational,2,32,230,7,AC (Single-Phase),4,97167,£0.25/kWh,3,50,4,4,Lidl-Norwich,Norwich,Aylsham Road,,NR3 2RY,52.650592,1.281146
152062,Type 2 (Socket Only),Operational,2,16,230,4,AC (Single-Phase),2,107705,Inclusive; for Polar Plus subscription members only,32,50,2,4,ASDA,Romford,ASDA,Dagenham,RM9 6SJ,51.530567,0.143267
130930,Type 2 (Socket Only),Operational,2,32,400,22,AC (Three-Phase),2,92365,Free,3315,50,2,4,"Bathgate Railway Station, Bathgate",Edinburgh,Bathgate Railway Station,West Lothian,EH48 1BA,55.89778,-3.63701
190085,Type 2 (Socket Only),Operational,2,16,230,3.7,AC (Single-Phase),,135674,,2244,0,,5,Campbell Road,Twickenham,Campbell Road,,TW2 5BZ,51.444356,-0.352261
64059,CHAdeMO,Operational,3,125,400,50,DC,1,51651,£0.30/kWh;min £1.50;Overstay charge of £5.00 after 60 minutes,20,75,1,4,Vines of Guildford,Guildford,Moorfield Road,Surrey,GU1 1RD,51.26115643,-0.566567872
64060,Type 2 (Tethered Connector),Operational,3,63,400,43,AC (Three-Phase),1,51651,£0.30/kWh;min £1.50;Overstay charge of £5.00 after 60 minutes,20,75,1,4,Vines of Guildford,Guildford,Moorfield Road,Surrey,GU1 1RD,51.26115643,-0.566567872
64061,CCS (Type 2),Not Operational,3,125,400,50,DC,1,51651,£0.30/kWh;min £1.50;Overstay charge of £5.00 after 60 minutes,20,75,1,4,Vines of Guildford,Guildford,Moorfield Road,Surrey,GU1 1RD,51.26115643,-0.566567872
112345,Type 2 (Socket Only),Operational,2,32,230,22,AC (Three-Phase),1,77763,,19,50,1,1,Stanley House,Carlisle,Mill Bridge,Cumbria,CA19 1TG,54.3923857,-3.2821511
254982,Type 2 (Socket Only),Operational,2,16,230,3.7,AC (Single-Phase),,167954,,3391,0,,1,Leighton Road,Brighton,Leighton Road,,BN3 7AE,50.838738,-0.179201
227394,CHAdeMO,Operational,3,125,400,50,DC,1,157818,,8,50,,4,Perry Vale Parking,London,Forest Hill,,SE23 2NJ,51.438049,-0.053036
227395,CCS (Type 2),Operational,3,125,400,50,DC,1,157818,,8,50,,4,Perry Vale Parking,London,Forest Hill,,SE23 2NJ,51.438049,-0.053036
261922,Type 2 (Tethered Connector),Operational,3,,,43,AC (Three-Phase),1,157818,,8,50,,4,Perry Vale Parking,London,Forest Hill,,SE23 2NJ,51.438049,-0.053036
104009,Type 2 (Socket Only),Operational,2,32,230,7,AC (Single-Phase),1,72561,1,3,0,3,6,Cheshire Oaks-Hyundai,Chester,1 Oakland Drive,Cheshire,CH65 9LG,53.259965,-2.887242
180855,Tesla (Model S/X),Operational,2,,,6,AC (Three-Phase),1,129207,,23,50,1,4,Baraset Barn,Coventry,Pimlico Lane,,CV37 7RJ,52.202722,-1.663184
144176,Type 2 (Socket Only),Operational,2,32,230,7,AC (Single-Phase),2,102157,Free,3,50,2,6,Wessex Newport-Hyundai,Newport,Seven Styles Avenue,,NP19 4QR,51.575345,-2.944849
208005,Type 2 (Socket Only),Operational,2,32,400,22,AC (Three-Phase),1,149806,35p per kw,203,50,,5,The Goldcrest,Hull,The Goldcrest,England,,53.74336,-0.32198
208006,CHAdeMO,Operational,3,125,400,50,DC,1,149806,35p per kw,203,50,,5,The Goldcrest,Hull,The Goldcrest,England,,53.74336,-0.32198
208007,CCS (Type 2),Operational,3,125,400,50,DC,1,149806,35p per kw,203,50,,5,The Goldcrest,Hull,The Goldcrest,England,,53.74336,-0.32198
257151,CHAdeMO,Operational,3,,,50,DC,1,169049,Free,3315,50,1,4,A836,Kirkwall,A836,Highland,KW14 7SP,58.52514612,-4.222933227
257152,CCS (Type 2),Operational,3,,,50,DC,1,169049,Free,3315,50,1,4,A836,Kirkwall,A836,Highland,KW14 7SP,58.52514612,-4.222933227
257153,Type 2 (Tethered Connector),Operational,3,63,400,43,AC (Three-Phase),1,169049,Free,3315,50,1,4,A836,Kirkwall,A836,Highland,KW14 7SP,58.52514612,-4.222933227
7638,BS1363 3 Pin 13 Amp,Operational,2,13,230,3,AC (Single-Phase),1,9801,,19,50,2,1,K West Hotel,London,Richmond Way,,W14 0AX,51.502441,-0.216425
7639,Blue Commando (2P+E),Operational,2,32,230,7,AC (Three-Phase),1,9801,,19,50,2,1,K West Hotel,London,Richmond Way,,W14 0AX,51.502441,-0.216425
190148,Type 2 (Socket Only),Operational,2,16,230,3.7,AC (Single-Phase),,135731,,3393,0,,5,East Street,Reading,East Street,,RG1 4QU,51.45241,-0.96655
124730,Tesla (Model S/X),Operational,2,32,400,22,AC (Three-Phase),2,87921,,23,50,2,6,Watergate Bay Hotel,Truro,On the Beach,,TR8 4AA,50.444752,-5.041104
68791,Type 2 (Socket Only),Operational,2,32,230,7,AC (Single-Phase),6,54516,1,3,50,6,4,Telefónica O2 UK,Slough,Bath Road,,SL1 4DX,51.51881822,-0.62827997
59990,Type 2 (Socket Only),Operational,2,32,230,7,AC (Single-Phase),2,48535,Inclusive; for Polar Plus subscription members only,32,50,2,4,Listers Toyota Boston,Peterborough,Tawney Street,,PE21 6PA,52.98152,-0.020962
19818,Type 2 (Socket Only),Operational,2,32,230,7,AC (Single-Phase),1,19490,£0.059/minute; min £1.18; other tariffs available,25,50,1,4,Gomm Road,London,Gomm Road,,SE16 2TY,51.4951345,-0.0532745
71797,Type 1 (J1772),Operational,2,13,230,4,AC (Single-Phase),1,19490,£0.059/minute; min £1.18; other tariffs available,25,50,1,4,Gomm Road,London,Gomm Road,,SE16 2TY,51.4951345,-0.0532745
161303,Type 2 (Socket Only),Operational,2,,,7,AC (Single-Phase),2,114596,Free,1,50,1,1,Cleveland Street car park,Preston,Cleveland Street ,,PR7 1DN,53.65377664,-2.631636902
189660,Type 2 (Socket Only),Operational,2,32,230,7,AC (Single-Phase),4,135361,Free,3,50,4,4,Tesco Superstore-Worcester,Worcester,St Peters Drive,,WR5 3SW,52.170837,-2.20462
103791,Type 2 (Socket Only),Operational,2,32,230,7,AC (Single-Phase),2,72424,1,3,0,4,6,Story Homes,Carlisle,"Story House, Lords Way",Cumbria,CA6 4SL,54.933922,-2.964348
26345,Type 2 (Socket Only),Operational,2,32,230,7,AC (Single-Phase),2,24244,Free,3,50,2,4,Palace Car Park,York,Prospect Street,East Riding of Yorkshire,YO15 3AA,54.08413517,-0.193569013
217609,Type 2 (Tethered Connector),Operational,3,63,400,43,AC (Three-Phase),1,154672,£0.35/kWh,20,50,,4,Stanley Terrace,Newcastle upon Tyne,Stanley Terrace,,NE61 1PA,55.168136,-1.686938
217610,CHAdeMO,Operational,3,125,400,50,DC,1,154672,£0.35/kWh,20,50,,4,Stanley Terrace,Newcastle upon Tyne,Stanley Terrace,,NE61 1PA,55.168136,-1.686938
217611,CCS (Type 2),Operational,3,125,400,50,DC,1,154672,£0.35/kWh,20,50,,4,Stanley Terrace,Newcastle upon Tyne,Stanley Terrace,,NE61 1PA,55.168136,-1.686938
188917,Type 2 (Socket Only),Operational,2,16,230,3.7,AC (Single-Phase),,134989,,3345,0,,5,Olive Road,London,Olive Road,,NW2 6UD,51.556368,-0.221597
187671,Type 2 (Socket Only),Operational,2,32,230,7,AC (Single-Phase),2,134120,£0.059/minute; min £1.18; other tariffs available,25,50,2,4,Maythorne Cottages,London,Maythorne Cottages,,SE13 6HE,51.452211,-0.001929
187672,Type 1 (J1772),Operational,2,,230,4,AC (Single-Phase),2,134120,£0.059/minute; min £1.18; other tariffs available,25,50,2,4,Maythorne Cottages,London,Maythorne Cottages,,SE13 6HE,51.452211,-0.001929
303589,Type 2 (Socket Only),Operational,2,32,400,22,AC (Three-Phase),,188119,,3298,0,,5,Stanwix Cark Park,Carlisle,Stanwix Cark Park,,CA3 9DJ,54.904438,-2.936945
303590,Type 2 (Socket Only),Operational,2,32,400,22,AC (Three-Phase),,188119,,3298,0,,5,Stanwix Cark Park,Carlisle,Stanwix Cark Park,,CA3 9DJ,54.904438,-2.936945
228147,Type 2 (Socket Only),Operational,2,32,230,7,AC (Single-Phase),,158201,,8,0,,4,Arnhall Business Park,Aberdeen,Arnhall Business Park,,AB32 6FE,57.145531,-2.28556
228148,Type 2 (Socket Only),Operational,2,32,400,22,AC (Three-Phase),,158201,,8,0,,4,Arnhall Business Park,Aberdeen,Arnhall Business Park,,AB32 6FE,57.145531,-2.28556
302953,Type 2 (Socket Only),Operational,2,16,230,3.7,AC (Single-Phase),,187716,,2244,0,,5,2 Hopgood Street,London,2 Hopgood Street,,W12 7JU,51.505516,-0.225327
233608,Tesla (Model S/X),Operational,2,,,11,AC (Three-Phase),2,162310,,23,50,2,4,Balbirnie House,Kirkcaldy,Balbirnie House,,KY7 6NE,56.209595,-3.143474
126035,Tesla (Model S/X),Operational,2,32,230,13,AC (Three-Phase),2,88787,,23,50,2,4,St David's Shopping Centre,Cardiff,St David's Shopping Centre Bridge Street Arcade,Cardiff,CF10 2EQ,51.479103,-3.174819
7257,Type 2 (Socket Only),Operational,2,32,230,7,AC (Single-Phase),2,9552,Free but Parking charges apply,19,50,4,1,St Stephens Shopping Centre ,Hull,110 Ferensway Hull,East Yorkshire,HU2 8LN,53.745442,-0.347555
7258,Blue Commando (2P+E),Operational,2,16,230,4,AC (Three-Phase),1,9552,Free but Parking charges apply,19,50,4,1,St Stephens Shopping Centre ,Hull,110 Ferensway Hull,East Yorkshire,HU2 8LN,53.745442,-0.347555
183059,BS1363 3 Pin 13 Amp,Operational,2,13,230,3,AC (Single-Phase),1,9552,Free but Parking charges apply,19,50,4,1,St Stephens Shopping Centre ,Hull,110 Ferensway Hull,East Yorkshire,HU2 8LN,53.745442,-0.347555
76539,Type 2 (Socket Only),Operational,2,32,230,7,AC (Single-Phase),1,60419,"£20.00/hour,£20.00/hour",3,50,1,4,Regal Gaming & Leisure,Preston,139 Brookfield Place,Lancashire,PR5 8BF,53.7189838,-2.6476836
71800,Type 2 (Socket Only),Operational,2,32,230,7,AC (Single-Phase),1,56878,£0.059/minute; min £1.18; other tariffs available,25,50,1,4,East Dulwich Grove,London,2 East Dulwich Grove,,SE22 8EW,51.459683,-0.075509
71801,Type 1 (J1772),Operational,2,16,230,4,AC (Single-Phase),1,56878,£0.059/minute; min £1.18; other tariffs available,25,50,1,4,East Dulwich Grove,London,2 East Dulwich Grove,,SE22 8EW,51.459683,-0.075509
60384,Type 2 (Socket Only),Operational,2,32,230,7,AC (Single-Phase),2,48866,Inclusive; for Polar Plus subscription members only,32,50,2,4,Station Road,Swindon,Station Road,Wiltshire,SN10 1BZ,51.35226937,-1.998648047
202841,Type 2 (Socket Only),Operational,2,32,230,7,AC (Single-Phase),4,145960,"1,Free",3,50,4,4,Tesco Superstore-Worksop Gateford Road,Sheffield,Gateford Road,,S81 7AP,53.315544,-1.132055
266555,Type 2 (Socket Only),Operational,2,16,230,3.7,AC (Single-Phase),,173501,,3345,0,,5,3 Desenfans Road,London,3 Desenfans Road,,SE217DN,51.450529,-0.082988
253044,CHAdeMO,Operational,3,125,400,50,DC,1,167112,£0.20/kWh; minimum £1.50,20,50,1,5,Kings Mill Reservoir,Nottingham,Kings Mill Reservoir,,NG17 4PA,53.12876911,-1.228499114
253045,CCS (Type 2),Operational,3,125,400,50,DC,1,167112,£0.20/kWh; minimum £1.50,20,50,1,5,Kings Mill Reservoir,Nottingham,Kings Mill Reservoir,,NG17 4PA,53.12876911,-1.228499114
257258,Type 2 (Tethered Connector),Operational,3,,,43,AC (Three-Phase),1,167112,£0.20/kWh; minimum £1.50,20,50,1,5,Kings Mill Reservoir,Nottingham,Kings Mill Reservoir,,NG17 4PA,53.12876911,-1.228499114
191396,Type 2 (Socket Only),Operational,2,32,230,7,AC (Single-Phase),,136799,,20,0,,1,355 Eaton Road,Liverpool,355 Eaton Road,,L12 2AP,53.421247,-2.897796
191397,Type 2 (Socket Only),Operational,2,32,230,7,AC (Single-Phase),,136799,,20,0,,1,355 Eaton Road,Liverpool,355 Eaton Road,,L12 2AP,53.421247,-2.897796
207301,Type 2 (Socket Only),Operational,2,32,230,7,AC (Single-Phase),2,149294,Free,20,50,2,4,The German Embassy,London,The German Embassy,London,SW1X 8PZ,51.49802,-0.15474
302602,Type 2 (Socket Only),Operational,2,16,230,3.7,AC (Single-Phase),,187468,,2244,0,,5,10 Killarney Road,London,10 Killarney Road,,SW18 2DU,51.453232,-0.183341
120738,Tesla (Model S/X),Operational,2,32,230,7,AC (Single-Phase),2,84989,,23,50,2,4,The Outlet,Belfast,Cascum Road,,BT32 4LF,54.331207,-6.276309
203092,CHAdeMO,Operational,3,,,50,DC,1,146161,£0.25/kWh;min £2.00; overstay £5.00 after 60 minutes,3315,50,1,4,Stromness Ferry Terminal Rapid (triple Outlet),Kirkwall,Stromness Ferry Terminal,Orkney,KW16 3BH,58.96405,-3.29656
203093,CCS (Type 2),Operational,3,,,50,DC,1,146161,£0.25/kWh;min £2.00; overstay £5.00 after 60 minutes,3315,50,1,4,Stromness Ferry Terminal Rapid (triple Outlet),Kirkwall,Stromness Ferry Terminal,Orkney,KW16 3BH,58.96405,-3.29656
203094,Type 2 (Tethered Connector),Operational,3,,,43,AC (Three-Phase),1,146161,£0.25/kWh;min £2.00; overstay £5.00 after 60 minutes,3315,50,1,4,Stromness Ferry Terminal Rapid (triple Outlet),Kirkwall,Stromness Ferry Terminal,Orkney,KW16 3BH,58.96405,-3.29656
76401,Type 2 (Socket Only),Operational,2,32,400,22,AC (Three-Phase),1,60337,Free,3,50,2,6,Kakushin LTD,London,10a Parsons Green,,SW6 4TW,51.47402987,-0.201065172
105245,Type 2 (Socket Only),Operational,2,32,230,7,AC (Single-Phase),1,60337,Free,3,50,2,6,Kakushin LTD,London,10a Parsons Green,,SW6 4TW,51.47402987,-0.201065172
18627,Type 2 (Socket Only),Operational,2,32,230,7,AC (Single-Phase),2,18405,Free,20,50,2,4,Walkden Gateway,Manchester,2 Smith Street,,M28 3EZ,53.5248904,-2.3986003
227306,Type 2 (Socket Only),Operational,2,16,230,3.7,AC (Single-Phase),,157770,,8,0,,4,Park Place,Redhill,Park Place,,RH12 1DG,51.062199,-0.325798
227307,Type 2 (Socket Only),Operational,2,16,230,3.7,AC (Single-Phase),,157770,,8,0,,4,Park Place,Redhill,Park Place,,RH12 1DG,51.062199,-0.325798
190699,Type 2 (Socket Only),Operational,2,16,230,3.7,AC (Single-Phase),,136263,,2244,0,,5,Crane Avenue,London,Crane Avenue,,W3 6SX,51.512953,-0.265362
262466,Type 2 (Socket Only),Operational,2,32,400,22,AC (Three-Phase),,171642,Alfa Power: 25p/kWh,3326,50,1,5,Abaseen Superstore,Leeds,171 Harehills Lane,England,LS8 3QE,53.81643188,-1.513824581
266410,Type 2 (Socket Only),Operational,2,16,230,3.7,AC (Single-Phase),,173385,,2244,0,,1,11 Hampstead Hill Gardens,London,11 Hampstead Hill Gardens,,NW3 2PH,51.554823,-0.16963
140884,Type 2 (Socket Only),Operational,2,32,230,7,AC (Single-Phase),4,99712,Free,3,50,4,6,Stirling Square,London,5 - 7 Carlton Gardens,,SW1Y 5AD,51.506042,-0.133653
162084,CCS (Type 2),Operational,3,125,400,50,DC,1,115153,33p/kWh,3341,50,1,5,Norwich Enterprise Centre,Norwich,University Drive,Norfolk,NR4 7TJ,52.626117,1.23913
162085,Type 2 (Tethered Connector),Operational,3,63,400,43,AC (Three-Phase),1,115153,33p/kWh,3341,50,1,5,Norwich Enterprise Centre,Norwich,University Drive,Norfolk,NR4 7TJ,52.626117,1.23913
162086,CHAdeMO,Operational,3,125,400,50,DC,1,115153,33p/kWh,3341,50,1,5,Norwich Enterprise Centre,Norwich,University Drive,Norfolk,NR4 7TJ,52.626117,1.23913
191129,Type 2 (Socket Only),Operational,2,32,230,7,AC (Single-Phase),,136633,,8,0,,4,Bishop Stortford Station Car Park,Chelmsford,Station Road,,CM23 3BL,51.867771,0.161823
191130,Type 2 (Socket Only),Operational,2,32,230,7,AC (Single-Phase),,136633,,8,0,,4,Bishop Stortford Station Car Park,Chelmsford,Station Road,,CM23 3BL,51.867771,0.161823
143349,Tesla (Model S/X),Operational,2,32,400,22,AC (Three-Phase),1,101540,,23,50,1,4,Kids Today LTD,Southampton,Kids Today LTD 5 Renown Close,HANTS,SO53 4HZ,50.979224,-1.393462
206145,Type 2 (Socket Only),Operational,2,32,400,22,AC (Three-Phase),,148485,,3393,0,,1,South Street,Salisbury,South Street,,SP10 2BW,51.204827,-1.479853
24528,Type 2 (Socket Only),Operational,2,32,230,7,AC (Single-Phase),6,22847,1,3,50,6,4,University of Essex Staff Car Park,Colchester,Wivenhoe Park,Essex,CO4 3SQ,51.87545769,0.943837166
135069,Type 2 (Socket Only),Operational,2,32,230,7,AC (Single-Phase),2,95361,£0.17/kWh,3,50,2,4,Palace Street,London,Palace Street,,SW1E 5JL,51.497297,-0.139462
272634,CHAdeMO,Operational,3,,,50,DC,4,175601,£0.39/kWh,74,50,1,5,Wellington Street,Newcastle upon Tyne,Wellington Street,,NE4 9AQ,54.97671954,-1.64485412
272635,CCS (Type 2),Operational,3,,,50,DC,4,175601,£0.39/kWh,74,50,1,5,Wellington Street,Newcastle upon Tyne,Wellington Street,,NE4 9AQ,54.97671954,-1.64485412
272636,Type 2 (Tethered Connector),Operational,3,63,400,43,AC (Three-Phase),4,175601,£0.39/kWh,74,50,1,5,Wellington Street,Newcastle upon Tyne,Wellington Street,,NE4 9AQ,54.97671954,-1.64485412
272637,CCS (Type 2),Operational,3,,,175,DC,2,175601,£0.39/kWh,74,50,1,5,Wellington Street,Newcastle upon Tyne,Wellington Street,,NE4 9AQ,54.97671954,-1.64485412
90993,CHAdeMO,Operational,3,125,400,50,DC,1,65836,"Â£0.30/kWh; Â£10.00 overstay after 65 mins, + Â£0.30/kWh",150,50,2,4,Lowther Street,Carlisle,Lowther Street,Cumbria,CA3 8DX,54.89689869,-2.933902878
90994,Type 2 (Tethered Connector),Operational,3,63,400,43,AC (Three-Phase),1,65836,"Â£0.30/kWh; Â£10.00 overstay after 65 mins, + Â£0.30/kWh",150,50,2,4,Lowther Street,Carlisle,Lowther Street,Cumbria,CA3 8DX,54.89689869,-2.933902878
90995,CCS (Type 2),Operational,3,125,400,50,DC,1,65836,"Â£0.30/kWh; Â£10.00 overstay after 65 mins, + Â£0.30/kWh",150,50,2,4,Lowther Street,Carlisle,Lowther Street,Cumbria,CA3 8DX,54.89689869,-2.933902878
90996,Type 2 (Socket Only),Operational,2,32,400,22,AC (Three-Phase),2,65836,"Â£0.30/kWh; Â£10.00 overstay after 65 mins, + Â£0.30/kWh",150,50,2,4,Lowther Street,Carlisle,Lowther Street,Cumbria,CA3 8DX,54.89689869,-2.933902878
34786,Type 2 (Socket Only),Operational,2,32,230,7,AC (Single-Phase),2,21292,Free,3,50,2,4,Sainsbury's Inglis Green Road ,Edinburgh,Inglis Green Road ,,EH14 2ER,55.92453,-3.25221
303219,Type 2 (Socket Only),Operational,2,16,230,3.7,AC (Single-Phase),,187891,,3345,0,,5,CV5 8AQ,Coventry,,,CV5 8AQ,52.409097,-1.55246
50239,Type 2 (Socket Only),Operational,2,32,230,7,AC (Single-Phase),4,41893,£0.25/kWh,3,50,6,4,George Junction Park and Ride,Plymouth,Tavistock Road,Devon,PL6 7HB,50.4272149,-4.111593327
148262,Type 2 (Socket Only),Operational,2,32,230,7,AC (Single-Phase),4,105153,£0.108/kWh; for Polar Plus subscription members only,32,50,4,4,Crowne Plaza Leeds,Leeds,Crowne Plaza Leeds,Leeds,LS1 4DL,53.7967,-1.55824
50306,Type 2 (Tethered Connector),Operational,3,63,400,43,AC (Three-Phase),1,41939,Â£1.00 + Â£0.30/kWh; Â£10.00 overstay after 65 mins,150,75,1,4,Chapel St Car Park,Portsmouth,Chapel Street,,PO30 1PY,50.69837,-1.297022
73383,CHAdeMO,Not Operational,3,125,400,50,DC,1,41939,Â£1.00 + Â£0.30/kWh; Â£10.00 overstay after 65 mins,150,75,1,4,Chapel St Car Park,Portsmouth,Chapel Street,,PO30 1PY,50.69837,-1.297022
73384,CCS (Type 2),Not Operational,3,125,400,50,DC,1,41939,Â£1.00 + Â£0.30/kWh; Â£10.00 overstay after 65 mins,150,75,1,4,Chapel St Car Park,Portsmouth,Chapel Street,,PO30 1PY,50.69837,-1.297022
185061,Type 2 (Tethered Connector),Operational,3,63,400,43,AC (Three-Phase),1,132220,"£1.00+£0.30/kWh; £10.00 overstay fee after 95 mins, then £10.00 every subsequent 95 mins",150,50,1,4,Morrisons Chelmsford,Chelmsford,Dickens Place,,CM1 4UX,51.754693,0.446489
185079,CHAdeMO,Operational,3,,,50,DC,1,132220,"£1.00+£0.30/kWh; £10.00 overstay fee after 95 mins, then £10.00 every subsequent 95 mins",150,50,1,4,Morrisons Chelmsford,Chelmsford,Dickens Place,,CM1 4UX,51.754693,0.446489
185080,CCS (Type 2),Operational,3,,,50,DC,1,132220,"£1.00+£0.30/kWh; £10.00 overstay fee after 95 mins, then £10.00 every subsequent 95 mins",150,50,1,4,Morrisons Chelmsford,Chelmsford,Dickens Place,,CM1 4UX,51.754693,0.446489
68249,BS1363 3 Pin 13 Amp,Operational,2,13,230,3,AC (Single-Phase),1,54238,£0.108/kWh; for Polar Plus subscription members only,32,50,1,4,St John's Wood Road,London,St John's Wood Road,,NW8 7HN,51.529476,-0.170105
68250,Type 2 (Socket Only),Operational,2,32,230,7,AC (Single-Phase),1,54238,£0.108/kWh; for Polar Plus subscription members only,32,50,1,4,St John's Wood Road,London,St John's Wood Road,,NW8 7HN,51.529476,-0.170105
